countries:
  - country: FR
    sites:
      - name: St-Andre-les-Alpes
        lat: 44.00914
        lng: 6.52729
        nickname: StAndre
        contact: ''
        wind_direction: []
  - country: CO
    sites:
      - name: Aguapanella
        lat: 4.40436
        lng: -76.21074
        nickname: Aguapanella
        contact: ''
        wind_direction: []
      - name: Los Tanques
        lat: 4.4765
        lng: -76.1535
        nickname: LosTanques
        contact: ''
        wind_direction: []
  - country: TR
    sites:
      - name: Cameli
        lat: 36.98027
        lng: 29.31488
        nickname: Cameli
        contact: ''
        wind_direction: []
  - country: BR
    sites:
      - name: Assu
        lat: -5.595813
        lng: -36.967733
        nickname: assu
        contact: ''
        wind_direction: []
      - name: Caico
        lat: -6.437185
        lng: -37.082537
        nickname: caico
        contact: ''
        wind_direction: []
      - name: Quixada
        lat: -5.0363
        lng: -39.007838
        nickname: quixada
        contact: ''
        wind_direction: []
      - name: Cachoeirinha
        lat: -6.62255
        lng: -35.536918
        nickname: Cachoeirinha
        contact: ''
        wind_direction: []
      - name: Tacima
        lat: -6.499883
        lng: -35.66025
        nickname: tacima
        contact: ''
        wind_direction: []
      - name: Patu
        lat: -6.150083
        lng: -37.626377
        nickname: patu
        contact: ''
        wind_direction: []
  - country: UK
    sites:
      - name: Aberfoyle
        lat: 56.188031489
        lng: -4.40254545562121
        nickname: aberf
        contact: ''
        wind_direction: 158 - 248
      - name: Abertysswg
        lat: 51.7449331218933
        lng: -3.24405947766992
        nickname: abertysswg
        contact: http://www.swwsc.co.uk
        wind_direction: 248 - 338
      - name: Aberystwyth
        lat: 52.3473250805492
        lng: -4.11809675749829
        nickname: aberystwyth
        contact: http://www.flymidwales.org.uk
        wind_direction: 270 - 315
      - name: Abington
        lat: 55.5103532671796
        lng: -3.67734208831974
        nickname: abington
        contact: http://www.cloudbusters.co.uk/
        wind_direction: 248 - 293
      - name: Afton Down
        lat: 50.6705428135107
        lng: -1.48113600516138
        nickname: aftondown
        contact: http://www.shgc.org.uk/
        wind_direction: 315 - 45
      - name: Aonach Mor
        lat: 56.8421
        lng: -4.97092
        nickname: aonach
        contact: ''
        wind_direction: NaN - 22
      - name: Arreton
        lat: 50.6812
        lng: -1.22722
        nickname: arreton
        contact: http://www.shgc.org.uk/
        wind_direction: 180 - 180
      - name: Auchinleck Hill - Thornhill
        lat: 55.2698
        lng: -3.7043
        nickname: auchinleck
        contact: https://www.llsclub.co.uk/index.php/thornhill
        wind_direction: 203 - 203
      - name: Bache Hill
        lat: 52.2653930095104
        lng: -3.14303252611223
        nickname: bachehill
        contact: ''
        wind_direction: 113 - 158
      - name: Back of Ecton
        lat: 53.1194755567057
        lng: -1.85176273699385
        nickname: backofecton
        contact: http://www.tvhgc.co.uk/
        wind_direction: 68 - 68
      - name: Bald Hill
        lat: 51.6585415995216
        lng: -0.95629662243532
        nickname: baldhill
        contact: http://www.shgc.org.uk/
        wind_direction: 203 - 293
      - name: Ballard Down
        lat: 50.6309022629853
        lng: -1.94551342812172
        nickname: ballard
        contact: http://www.shgc.org.uk/
        wind_direction: 158 - 180
      - name: Balquidder
        lat: 56.3500326997859
        lng: -4.48520653604463
        nickname: balq
        contact: ''
        wind_direction: 113 - 248
      - name: Bank Hill
        lat: 56.1734935951761
        lng: -3.68517751595765
        nickname: bankhill
        contact: ''
        wind_direction: 203 - 203
      - name: Barkin Fell
        lat: 54.2764
        lng: -2.49482
        nickname: barkin
        contact: ''
        wind_direction: 90 - 113
      - name: Barkin Fell
        lat: 54.2766
        lng: -2.49716
        nickname: barkin
        contact: ''
        wind_direction: []
      - name: Barton Fell
        lat: 54.5829673112629
        lng: -2.83199386355677
        nickname: bartonfell
        contact: ''
        wind_direction: 293 - 338
      - name: Barton on Sea
        lat: 50.7352069706007
        lng: -1.65862695581684
        nickname: bartonsea
        contact: http://www.shgc.org.uk/
        wind_direction: 158 - 225
      - name: Beachy Head
        lat: 50.7398184701858
        lng: 0.25302571789741
        nickname: head
        contact: http://www.shgc.org.uk/
        wind_direction: 158 - 135
      - name: Bealach na Ba
        lat: 57.4124837759132
        lng: -5.70094832211753
        nickname: bealach
        contact: ''
        wind_direction: 113 - 158
      - name: Beesands
        lat: 50.2482763293152
        lng: -3.65966464621556
        nickname: beesands
        contact: ''
        wind_direction: 45 - 135
      - name: Beinn Bhan
        lat: 57.4248
        lng: -5.6297
        nickname: beinnbhan
        contact: ''
        wind_direction: 113 - 113
      - name: Beinn Eighe
        lat: 57.5783468221548
        lng: -5.40381420994692
        nickname: beinneighe
        contact: ''
        wind_direction: 203 - 158
      - name: Beinn Ghlas
        lat: ''
        lng: ''
        nickname: beinng
        contact: ''
        wind_direction: NaN - NaN
      - name: Beinn Leabhainn
        lat: ''
        lng: ''
        nickname: beinnl
        contact: ''
        wind_direction: NaN - NaN
      - name: Beinn Liath Mhor
        lat: 57.5117
        lng: -5.38893
        nickname: beinnlitah
        contact: ''
        wind_direction: NaN - 22
      - name: Beinn na Feusaige
        lat: 57.5656
        lng: -5.1047
        nickname: beinnnaf
        contact: ''
        wind_direction: 158 - 135
      - name: Beinn nam Ban
        lat: 57.869667744419
        lng: -5.19563885016533
        nickname: beinnnamban
        contact: ''
        wind_direction: 270 - 248
      - name: Belstone
        lat: 50.7000810875787
        lng: -3.96616029979146
        nickname: belstone
        contact: ''
        wind_direction: 68 - 113
      - name: Ben Bowie
        lat: 56.0074
        lng: -4.6715
        nickname: benbowie
        contact: ''
        wind_direction: 203 - 293
      - name: Ben Dorain
        lat: 56.5167921401825
        lng: -4.72955724345637
        nickname: bendorain
        contact: ''
        wind_direction: 248 - 338
      - name: Ben Ledi
        lat: 56.2526
        lng: -4.3061
        nickname: benledi
        contact: ''
        wind_direction: 23 - 113
      - name: Ben Reid
        lat: 56.8609799594144
        lng: -3.11914768176121
        nickname: benreid
        contact: ''
        wind_direction: 158 - 248
      - name: Ben Rinnes
        lat: 57.4040082506064
        lng: -3.24101426896151
        nickname: benrinnes
        contact: ''
        wind_direction: NaN - 45
      - name: Ben Toaig
        lat: 56.5615530231602
        lng: -4.83163618458246
        nickname: bentoaig
        contact: ''
        wind_direction: 113 - 158
      - name: Ben Wyvis
        lat: 57.6623198441268
        lng: -4.60076014012841
        nickname: benwyvis
        contact: ''
        wind_direction: 293 - 338
      - name: Bewaldeth
        lat: 54.714728742545
        lng: -3.22651028062488
        nickname: bewaldeth
        contact: ''
        wind_direction: 180 - 270
      - name: Bishops Hill
        lat: 56.2164841084495
        lng: -3.31863056105699
        nickname: bishops
        contact: ''
        wind_direction: 225 - 315
      - name: Black Combe
        lat: 54.2645366034003
        lng: -3.3550084283699
        nickname: blackc
        contact: ''
        wind_direction: 248 - 293
      - name: Black Hill
        lat: 56.955073977522
        lng: -2.20246795000816
        nickname: blackhillscot
        contact: ''
        wind_direction: 248 - 293
      - name: Black Hill
        lat: 56.9552
        lng: -2.2024
        nickname: blackhillscot
        contact: ''
        wind_direction: []
      - name: Black Hill (Manaton)
        lat: 50.5981589690917
        lng: -3.74683270300243
        nickname: manaton
        contact: ''
        wind_direction: 45 - 90
      - name: Black Mount (E) - Glas Bheinn
        lat: 56.5862431348937
        lng: -4.73191353859692
        nickname: blackmounte
        contact: ''
        wind_direction: 293 - 338
      - name: Black Mount (W)
        lat: 56.5879
        lng: -4.7632
        nickname: blackmountw
        contact: ''
        wind_direction: 315 - 68
      - name: Blacka Moor
        lat: ''
        lng: ''
        nickname: blackamoor
        contact: http://friendsofblackamoor.co.uk/default.aspx
        wind_direction: NaN - NaN
      - name: Blackhall
        lat: 54.7528868018388
        lng: -1.28273622305469
        nickname: blackhall
        contact: ''
        wind_direction: 45 - 45
      - name: Blacksidend
        lat: 55.540269530285
        lng: -4.24632539074208
        nickname: blacksidend
        contact: ''
        wind_direction: 248 - 248
      - name: Blackstone Edge
        lat: 53.6444100687158
        lng: -2.05290790858077
        nickname: blackstone
        contact: ''
        wind_direction: 293 - 338
      - name: Blaenavon
        lat: 51.7810399845876
        lng: -3.13783124710484
        nickname: blaenavon
        contact: http://www.swwsc.co.uk
        wind_direction: NaN - 90
      - name: Blease Fell
        lat: 54.6252647484199
        lng: -3.07603426418406
        nickname: blease
        contact: ''
        wind_direction: 158 - 225
      - name: Bodesbeck Law
        lat: 55.3803
        lng: -3.3118
        nickname: bodesbeck
        contact: ''
        wind_direction: 293 - 338
      - name: Bossington Hill
        lat: 51.225720219128
        lng: -3.57369592124891
        nickname: bossington
        contact: ''
        wind_direction: 293 - 248
      - name: Bradwell
        lat: 53.3214
        lng: -1.7296
        nickname: bradwell
        contact: www.derbyshiresoaringclub.org.uk
        wind_direction: 225 - 330
      - name: Brampton Quarry
        lat: ''
        lng: ''
        nickname: bramptonq
        contact: ''
        wind_direction: NaN - NaN
      - name: Branscombe
        lat: 50.6882923717306
        lng: -3.15708682375721
        nickname: branscombe
        contact: http://www.shgc.org.uk/
        wind_direction: 180 - 180
      - name: Brant Side
        lat: 54.2750725830989
        lng: -2.34308278419474
        nickname: brant
        contact: ''
        wind_direction: 225 - 293
      - name: Bratton Ball
        lat: 51.2146
        lng: -3.51066
        nickname: brattonball
        contact: ''
        wind_direction: 158 - 248
      - name: Brent Knoll
        lat: 51.2543604193153
        lng: -2.94761382040524
        nickname: brentknoll
        contact: http://www.dscondors.co.uk/
        wind_direction: 203 - 225
      - name: Bridlington
        lat: 54.097377039638
        lng: -0.17079375729199
        nickname: bridlington
        contact: ''
        wind_direction: 90 - 180
      - name: Brighstone
        lat: 50.655
        lng: -1.3922
        nickname: crowdecote
        contact: http://www.flywight.co.uk/
        wind_direction: 180 - 225
      - name: Brigsteer
        lat: 54.2963081493655
        lng: -2.7888910134349
        nickname: brigsteer
        contact: ''
        wind_direction: 203 - 293
      - name: Broadlee Bank (SE)
        lat: 53.372802
        lng: -1.834445
        nickname: broadleeSE
        contact: ''
        wind_direction: 90 - 225
      - name: Broughton Heights
        lat: 55.6614414460393
        lng: -3.40296234104741
        nickname: broughton
        contact: https://www.llsclub.co.uk/index.php/broughton-heights
        wind_direction: 248 - 248
      - name: Brownhead
        lat: 55.4846
        lng: -5.324
        nickname: brownhead
        contact: ''
        wind_direction: 248 - 248
      - name: Bruthach nan Uamh
        lat: 57.1658
        lng: -4.99337
        nickname: bruthach
        contact: ''
        wind_direction: 23 - 158
      - name: Bryncaws
        lat: 51.713304956968
        lng: -3.78761440523613
        nickname: bryncaws
        contact: 'http://www.sewhgpgc.co.uk '
        wind_direction: 113 - 158
      - name: Buckies - Finstry Hills (NE)
        lat: ''
        lng: ''
        nickname: buckies
        contact: https://www.llsclub.co.uk/index.php/stronend
        wind_direction: NaN - NaN
      - name: Buckies - Lees Hill (NW)
        lat: ''
        lng: ''
        nickname: buckies2
        contact: https://www.llsclub.co.uk/index.php/stronen
        wind_direction: NaN - NaN
      - name: Bunster Hill
        lat: 53.0607
        lng: -1.7907
        nickname: bunsterhill
        contact: http://www.tvhgc.co.uk/
        wind_direction: 180 - 158
      - name: Burnbank Fell
        lat: 54.5798070551678
        lng: -3.37174595648297
        nickname: burnbank
        contact: ''
        wind_direction: 315 - 90
      - name: Bushwhack Ridge
        lat: 56.2783562992193
        lng: -4.26778414779235
        nickname: bushwhack
        contact: ''
        wind_direction: 248 - 293
      - name: Butser South
        lat: 50.9702016188688
        lng: -0.98188007465424
        nickname: butsers
        contact: http://skysurfingclub.co.uk/
        wind_direction: 248 - 293
      - name: Butser West
        lat: 50.9769182006686
        lng: -0.98770715175686
        nickname: busterwest
        contact: http://www.dscondors.co.uk/
        wind_direction: 248 - 293
      - name: Buttermere Moss
        lat: 54.5424784744801
        lng: -3.25690026096828
        nickname: bmm
        contact: ''
        wind_direction: 248 - 248
      - name: Cacra
        lat: 55.440000269722
        lng: -3.07494026113707
        nickname: cacra
        contact: ''
        wind_direction: 203 - 248
      - name: Cairn O Mount
        lat: 56.9143291013917
        lng: -2.57591558342702
        nickname: cairnomount
        contact: ''
        wind_direction: 158 - 248
      - name: Cairngorm
        lat: 57.1295805216915
        lng: -3.6517339319546
        nickname: cairngorm
        contact: ''
        wind_direction: 203 - 248
      - name: Cairnwell - Glenshee
        lat: 56.8788
        lng: -3.421
        nickname: cairnwell
        contact: ''
        wind_direction: 67 - 157, 247 - 247
      - name: Cam Lond Down
        lat: 51.6942446332592
        lng: -2.330827107505
        nickname: camlongdown
        contact: http://www.avonhgpg.co.uk/sites/camlongd.php?s
        wind_direction: 270 - 23
      - name: Campsies
        lat: 55.9939725534847
        lng: -4.21483274817732
        nickname: campsies
        contact: https://www.llsclub.co.uk/index.php/campsie-fells
        wind_direction: 203 - 203
      - name: Captain Cooks Monument
        lat: 54.4827782300253
        lng: -1.09160227161436
        nickname: ccm
        contact: ''
        wind_direction: 225 - 225
      - name: Carn Liath
        lat: 56.8055885351326
        lng: -3.7454920812351
        nickname: carnl
        contact: ''
        wind_direction: 158 - 158
      - name: Carrock Fell
        lat: 54.6981262570753
        lng: -3.01345169915615
        nickname: carrock
        contact: ''
        wind_direction: 23 - 90
      - name: Carsphairn
        lat: 55.2211953185613
        lng: -4.32964130032646
        nickname: carsphairn
        contact: ''
        wind_direction: 113 - 68
      - name: Cartridge Hill
        lat: 53.6746832656325
        lng: -2.50037618835592
        nickname: cartridgehill
        contact: ''
        wind_direction: 248 - 315
      - name: Castle Morton
        lat: 52.0451412226524
        lng: -2.34866536918332
        nickname: castlemorton
        contact: http://www.malvern-hang.org.uk/
        wind_direction: 68 - 113
      - name: Cats Tor
        lat: 53.2807
        lng: -2.009
        nickname: catstor
        contact: http://www.peaksoaring.co.uk
        wind_direction: 225 - 315
      - name: Cautley Crags
        lat: ''
        lng: ''
        nickname: cautleyc
        contact: ''
        wind_direction: NaN - NaN
      - name: Cautley Spout
        lat: 54.3769806337038
        lng: -2.48164069702358
        nickname: cautleys
        contact: ''
        wind_direction: 158 - 180
      - name: Cayton Bay
        lat: 54.2418
        lng: -0.3569
        nickname: caytonbay
        contact: ''
        wind_direction: NaN - 22
      - name: Chalton Down
        lat: 50.9293394265995
        lng: -0.95423641569418
        nickname: chalton
        contact: http://skysurfingclub.co.uk/
        wind_direction: 68 - 113
      - name: Chelmorton
        lat: 53.234198091182
        lng: -1.8282832549696
        nickname: chelmorton
        contact: http://www.peaksoaring.co.uk
        wind_direction: NaN - 22
      - name: Chillerton
        lat: 50.6475373339093
        lng: -1.32716622113774
        nickname: chillerton
        contact: http://www.flywight.co.uk/
        wind_direction: 225 - 225
      - name: Chinnor
        lat: 51.6994254798154
        lng: -0.89065662552319
        nickname: chinnor
        contact: http://dunstablehpc.co.uk/cms/site-guides/chinnor/
        wind_direction: 270 - 360
      - name: Claunie
        lat: 57.1637
        lng: -5.20708
        nickname: claunie
        contact: ''
        wind_direction: 203 - 135
      - name: Clennel Hill
        lat: 55.3658161467868
        lng: -2.11330111156685
        nickname: clennel
        contact: ''
        wind_direction: 158 - 180
      - name: Clough Head
        lat: 54.595912477675
        lng: -3.04128805016591
        nickname: clough
        contact: ''
        wind_direction: 248 - 338
      - name: Cocking Tor
        lat: 53.1454
        lng: -1.4862
        nickname: cockingtor
        contact: ''
        wind_direction: 30 - 125
      - name: Codden Hill
        lat: 51.0489951512801
        lng: -4.02254391344317
        nickname: codden
        contact: ''
        wind_direction: NaN - 22
      - name: Coire a Chaorachain
        lat: 57.418
        lng: -5.6886
        nickname: coire
        contact: ''
        wind_direction: 68 - 113
      - name: Coldsmouth Hill
        lat: 55.5473
        lng: -2.2279
        nickname: coldsmouth
        contact: ''
        wind_direction: 248 - 338
      - name: Combe Gibbet
        lat: 51.3589238419894
        lng: -1.48012690405236
        nickname: combegibbet
        contact: http://www.tvhgc.co.uk/
        wind_direction: NaN - 22
      - name: Coney s Castle
        lat: 50.775648
        lng: -2.892199
        nickname: coneyscastle
        contact: http://www.shgc.org.uk/
        wind_direction: 68 - 113
      - name: Coniston Old Man
        lat: 54.3696765249964
        lng: -3.12058810128896
        nickname: com
        contact: ''
        wind_direction: 68 - 158
      - name: Constitution Hill
        lat: 52.4289762847688
        lng: -4.08012212334657
        nickname: constitutionhill
        contact: http://www.flymidwales.org.uk
        wind_direction: 293 - 315
      - name: Corn Ridge
        lat: 50.6865
        lng: -4.0499
        nickname: cormridge
        contact: ''
        wind_direction: 315 - 45
      - name: Corndon
        lat: 52.5658029326581
        lng: -3.02500542257258
        nickname: corndon
        contact: http://www.flymidwales.org.uk
        wind_direction: NaN - 22
      - name: Corton Denham
        lat: 51.0086
        lng: -2.5248
        nickname: cortondenham
        contact: ' '
        wind_direction: 225 - 225
      - name: Countisbury
        lat: 51.2363055555556
        lng: -3.79476666666667
        nickname: countisbury
        contact: ''
        wind_direction: 293 - 360
      - name: Cow Close
        lat: 54.1548628922963
        lng: -2.17245828520615
        nickname: cow
        contact: ''
        wind_direction: NaN - 68
      - name: Cowards Bowl
        lat: 51.1087540716701
        lng: -2.2717949488275
        nickname: cowards
        contact: http://www.avonhgpg.co.uk/
        wind_direction: 90 - 203
      - name: Cowdown
        lat: 50.7967004186571
        lng: -2.51353277025741
        nickname: cowdown
        contact: http://www.shgc.org.uk/
        wind_direction: 248 - 293
      - name: Cox Tor
        lat: 50.5677967641962
        lng: -4.07708794372159
        nickname: coxtor
        contact: ''
        wind_direction: 248 - 338
      - name: Craig Huhlich
        lat: 56.5197
        lng: -3.79677
        nickname: craigh
        contact: ''
        wind_direction: 23 - 68
      - name: Craig Leith (Alva)
        lat: ''
        lng: ''
        nickname: craigl
        contact: ''
        wind_direction: NaN - NaN
      - name: Craig Lethnot
        lat: ''
        lng: ''
        nickname: craiglethnot
        contact: https://www.ahpc.org.uk/sites/craig-lethnot/
        wind_direction: NaN - NaN
      - name: Craiglich
        lat: 57.1368718944488
        lng: -2.77309783770495
        nickname: craiglich
        contact: ''
        wind_direction: 180 - 270
      - name: Creag Dubh
        lat: ''
        lng: ''
        nickname: creagdubh
        contact: ''
        wind_direction: NaN - NaN
      - name: Creag Meaghaidh
        lat: 56.9545016600413
        lng: -4.53655599565876
        nickname: creagme
        contact: ''
        wind_direction: 113 - 113
      - name: Creag nan Clag
        lat: 57.3285
        lng: -4.3274
        nickname: creagnan
        contact: ''
        wind_direction: 315 - 360
      - name: Crete Road
        lat: 51.1016528355903
        lng: 1.13872813802771
        nickname: creteroad
        contact: http://www.shgc.org.uk/
        wind_direction: 203 - 203
      - name: Crimdon
        lat: 54.7264716152508
        lng: -1.25081418805612
        nickname: crimdon
        contact: ''
        wind_direction: 23 - 68
      - name: Cringle Moor
        lat: 54.4233476140896
        lng: -1.17852849895833
        nickname: cringlemoor
        contact: ''
        wind_direction: 23 - 68
      - name: Crook Peak
        lat: 51.2961581895822
        lng: -2.88022604835054
        nickname: crookpeak
        contact: http://www.dscondors.co.uk/
        wind_direction: 225 - 203
      - name: Cross Fell
        lat: 54.7028541246983
        lng: -2.5272337589084
        nickname: crossf
        contact: ''
        wind_direction: 203 - 248
      - name: Crowdecote
        lat: 53.1802
        lng: -1.83687
        nickname: crowdecote
        contact: http://www.peaksoaring.co.uk
        wind_direction: 248 - 248
      - name: Curbar Edge
        lat: 53.2695
        lng: -1.61092
        nickname: curbaredge
        contact: www.derbyshiresoaringclub.org.uk
        wind_direction: 210 - 240
      - name: Dale Head
        lat: 53.3442
        lng: -1.8697
        nickname: dalehead
        contact: www.derbyshiresoaringclub.org.uk
        wind_direction: 30 - 120
      - name: Devils Dyke
        lat: 50.8857
        lng: -0.21296
        nickname: devils
        contact: http://www.shgc.org.uk/
        wind_direction: NaN - 338
      - name: Disgwylfa Fawr
        lat: 52.444701350389
        lng: -3.86067222222222
        nickname: disgwylfafawr
        contact: http://www.flymidwales.org.uk
        wind_direction: 315 - 270
      - name: Ditchling Beacon
        lat: 50.9034286674239
        lng: -0.11571065450817
        nickname: ditchling
        contact: http://www.shgc.org.uk/
        wind_direction: 315 - 45
      - name: Dizzard
        lat: 50.7640942434559
        lng: -4.58920707776593
        nickname: dizzard
        contact: ''
        wind_direction: 315 - 360
      - name: Dodd Fell
        lat: 54.2486938695917
        lng: -2.26367676555675
        nickname: doddf
        contact: ''
        wind_direction: 315 - 315
      - name: Double Craigs - Stronend (W)
        lat: ''
        lng: ''
        nickname: doublecraigs
        contact: https://www.llsclub.co.uk/index.php/stronend
        wind_direction: NaN - NaN
      - name: Draycott
        lat: 51.2541583941813
        lng: -2.72121144345133
        nickname: draycott
        contact: ' http://www.avonhgpg.co.uk/ '
        wind_direction: 203 - 248
      - name: Drumadoon
        lat: 55.5121625968146
        lng: -5.34898045830018
        nickname: drumadoon
        contact: ''
        wind_direction: 293 - 315
      - name: Dumyat
        lat: ''
        lng: ''
        nickname: dumyat
        contact: https://www.llsclub.co.uk/index.php/dumyat
        wind_direction: NaN - NaN
      - name: Dungavel Hill
        lat: 55.5571914237185
        lng: -3.68174090624729
        nickname: dungavel
        contact: https://www.llsclub.co.uk/index.php/dungavel
        wind_direction: 203 - 293
      - name: Dunstable
        lat: 51.874531804943
        lng: -0.53763593420895
        nickname: dunstable
        contact: https://dunstablehpc.com/
        wind_direction: 248 - 248
      - name: Easington
        lat: 54.7861221110358
        lng: -1.30948614151935
        nickname: easington
        contact: ''
        wind_direction: 68 - 113
      - name: East Hill
        lat: 50.7246366991596
        lng: -3.25424472222059
        nickname: easthill
        contact: http://www.shgc.org.uk/
        wind_direction: 248 - 293
      - name: East Hill (Northumberland)
        lat: 55.439785652549
        lng: -1.94900624851239
        nickname: easthn
        contact: ''
        wind_direction: 113 - 158
      - name: East Lomond
        lat: 56.2422908056429
        lng: -3.22125048110153
        nickname: eastl
        contact: ''
        wind_direction: 315 - 45
      - name: Ebbw Vale
        lat: 51.7518037533784
        lng: -3.20677869488903
        nickname: ebbw
        contact: http://www.swwsc.co.uk
        wind_direction: 23 - 113
      - name: Edenfield
        lat: 53.656826048234
        lng: -2.27147645063713
        nickname: edenfield
        contact: ''
        wind_direction: 203 - 203
      - name: Edge Top
        lat: ''
        lng: ''
        nickname: edgetop
        contact: http://www.peaksoaring.co.uk
        wind_direction: NaN - NaN
      - name: Elan Valley
        lat: ''
        lng: ''
        nickname: elanvalley
        contact: https://www.flymidwales.org.uk/
        wind_direction: NaN - NaN
      - name: Elidir Fach
        lat: 53.1277693445363
        lng: -4.10220704772496
        nickname: elidirfach
        contact: http://www.tvhgc.co.uk/
        wind_direction: 248 - 338
      - name: Ellerside
        lat: 54.2202115223866
        lng: -2.98871191829499
        nickname: ellerside
        contact: ''
        wind_direction: 248 - 293
      - name: Eyam Edge
        lat: 53.2963235190985
        lng: -1.69624944647864
        nickname: eyamedge
        contact: www.derbyshiresoaringclub.org.uk
        wind_direction: 165 - 245, 203 - 225
      - name: Eyam Edge
        lat: 53.2962
        lng: -1.6968
        nickname: eyamedge
        contact: www.derbyshiresoaringclub.org.uk
        wind_direction: []
      - name: Eype
        lat: 50.7159690942462
        lng: -2.77900408742589
        nickname: eype
        contact: http://www.shgc.org.uk/
        wind_direction: 203 - 203
      - name: Fairbourne
        lat: 52.6850588821605
        lng: -4.05219580873899
        nickname: fairbourne
        contact: http://www.flymidwales.org.uk
        wind_direction: 293 - 338
      - name: Fan Gyhirych
        lat: 51.8599590348436
        lng: -3.62369914743944
        nickname: gyhirych
        contact: http://www.swwsc.co.uk
        wind_direction: NaN - 22
      - name: Farleton Knott
        lat: 54.2182943527723
        lng: -2.70956001245388
        nickname: farleton
        contact: ''
        wind_direction: 225 - 338
      - name: Farmers
        lat: 52.1109865619453
        lng: -3.97522475881507
        nickname: farmers
        contact: 'http://www.sewhgpgc.co.uk '
        wind_direction: 158 - 158
      - name: Farway
        lat: 50.7403217268077
        lng: -3.14388879866912
        nickname: farway
        contact: http://www.shgc.org.uk/
        wind_direction: NaN - 22
      - name: Fionn Bheinn
        lat: 57.6109
        lng: -5.1037
        nickname: fionn
        contact: ''
        wind_direction: 158 - 158
      - name: Firle
        lat: 50.8350021037304
        lng: 0.08032212804009
        nickname: firle
        contact: http://www.shgc.org.uk/
        wind_direction: NaN - 23
      - name: Ford Farm
        lat: 51.1467327667851
        lng: -2.90027591846313
        nickname: fordfarm
        contact: http://www.dscondors.co.uk/
        wind_direction: 158 - 248
      - name: Fourman Hill
        lat: 57.5004
        lng: -2.71747
        nickname: fourman
        contact: ''
        wind_direction: 23 - 68
      - name: Fraserburgh Beach
        lat: 57.68
        lng: -1.9926
        nickname: fraserburgh
        contact: ''
        wind_direction: NaN - 45
      - name: Frocester
        lat: 51.708936663441
        lng: -2.29937933385733
        nickname: frocester
        contact: ' http://www.avonhgpg.co.uk/ '
        wind_direction: 248 - 338
      - name: Gargunnock
        lat: 56.1113667969231
        lng: -4.07599471558196
        nickname: gargu
        contact: ''
        wind_direction: 293 - 23
      - name: Garth Hill
        lat: 51.5453869110586
        lng: -3.28158665675096
        nickname: garthhill
        contact: http://www.shgc.org.uk/
        wind_direction: 45 - 203
      - name: Garway Hill
        lat: 51.9195762779865
        lng: -2.8221786869612
        nickname: garway
        contact: ' '
        wind_direction: 68 - 158
      - name: Glen Fruin
        lat: 56.0672
        lng: -4.747
        nickname: glenfruin
        contact: ''
        wind_direction: 248 - 270
      - name: Glyderau
        lat: 53.0905
        lng: -3.9991
        nickname: glyderau
        contact: http://www.tvhgc.co.uk/
        wind_direction: 203 - 158
      - name: Goat Fell
        lat: 55.6259
        lng: -5.1917
        nickname: goatfell
        contact: ''
        wind_direction: 248 - 248
      - name: Golden Ball
        lat: 51.3729315683573
        lng: -1.82031067106283
        nickname: goldenball
        contact: http://www.tvhgc.co.uk/
        wind_direction: 203 - 158
      - name: Gragareth
        lat: 54.2039387179054
        lng: -2.47841219141294
        nickname: grag
        contact: ''
        wind_direction: 68 - 135
      - name: Great Coum
        lat: ''
        lng: ''
        nickname: gc
        contact: ''
        wind_direction: NaN - NaN
      - name: Great Langdale
        lat: 54.4552361364794
        lng: -3.10535431693037
        nickname: gld
        contact: ''
        wind_direction: 113 - 158
      - name: Green Dragons
        lat: 51.289038515394
        lng: -0.01660582389596
        nickname: greendragons
        contact: http://www.shgc.org.uk/
        wind_direction: NaN - 22
      - name: Grike
        lat: 54.5221703139353
        lng: -3.39244456683296
        nickname: grike
        contact: ''
        wind_direction: 315 - 68
      - name: Gyrn Moelfre
        lat: 52.851
        lng: -3.2078
        nickname: gyrnmoelfre
        contact: ''
        wind_direction: 158 - 158
      - name: Haig Pit
        lat: 54.5435233413398
        lng: -3.59955312636566
        nickname: haig
        contact: ''
        wind_direction: 248 - 315
      - name: Ham Hill
        lat: ''
        lng: ''
        nickname: hamhill
        contact: http://www.dscondors.co.uk/
        wind_direction: NaN - NaN
      - name: Hambledon Hill
        lat: ''
        lng: ''
        nickname: hambledonhill
        contact: http://www.shgc.org.uk/
        wind_direction: NaN - NaN
      - name: Hameldon Hill
        lat: 53.7572931910112
        lng: -2.29548334267589
        nickname: hameldon
        contact: ''
        wind_direction: 315 - 45
      - name: Haresfield
        lat: 51.7792
        lng: -2.256
        nickname: haresfield
        contact: ' http://www.avonhgpg.co.uk/ '
        wind_direction: 158 - 248
      - name: Harting Down
        lat: 50.9594804257671
        lng: -0.86976864444793
        nickname: harting
        contact: http://skysurfingclub.co.uk/
        wind_direction: 315 - 23
      - name: Hawksick
        lat: 54.1476659156527
        lng: -2.09807285316551
        nickname: hawksick
        contact: ''
        wind_direction: 203 - 225
      - name: Hay Bluff
        lat: 52.0140385887471
        lng: -3.11166402239495
        nickname: haybluff
        contact: http://www.sewhgpgc.co.uk
        wind_direction: 270 - 315
      - name: Heol Senny
        lat: 51.8900076589338
        lng: -3.58219749866491
        nickname: heolsenny
        contact: http://www.swwsc.co.uk
        wind_direction: 45 - 45
      - name: Hepburn Wood
        lat: 55.5009
        lng: -1.8767
        nickname: hepburn
        contact: ''
        wind_direction: 248 - 270
      - name: High Edge
        lat: 53.2170526063824
        lng: -1.90739997855571
        nickname: highedge
        contact: http://www.peaksoaring.co.uk
        wind_direction: 23 - 113
      - name: High Wheeldon
        lat: 53.1915794118891
        lng: -1.85152187057641
        nickname: highwheeldon
        contact: http://www.peaksoaring.co.uk
        wind_direction: 203 - 248
      - name: Hill Farm
        lat: 52.6916018712208
        lng: 0.81356299599655
        nickname: farm
        contact: http://www.shgc.org.uk/
        wind_direction: NaN - 22
      - name: Hillend
        lat: 55.8830374517101
        lng: -3.21367864166559
        nickname: hillend
        contact: https://www.llsclub.co.uk/index.php/hillend
        wind_direction: NaN - 22
      - name: Holmbeck
        lat: 51.9101364159082
        lng: -0.72950542944165
        nickname: holmbeck
        contact: http://dunstablehpc.co.uk/
        wind_direction: NaN - 22
      - name: Holme Moss
        lat: 53.532386676772
        lng: -1.85089342506071
        nickname: holmemoss
        contact: ''
        wind_direction: NaN - 68
      - name: Horcum
        lat: 54.3347565695724
        lng: -0.70015481656979
        nickname: horcum
        contact: ''
        wind_direction: 203 - 158
      - name: Horden
        lat: 54.7723682423419
        lng: -1.30653753298529
        nickname: horden
        contact: ''
        wind_direction: 45 - 90
      - name: Hownam Law
        lat: 55.4888
        lng: -2.32372
        nickname: hownam
        contact: ''
        wind_direction: 158 - 158
      - name: Humbleton Hill
        lat: 55.5488976249641
        lng: -2.05299166565118
        nickname: humbleton
        contact: ''
        wind_direction: NaN - 68
      - name: Humphrey Head
        lat: 54.15645315539
        lng: -2.93415758814235
        nickname: humphrey
        contact: ''
        wind_direction: 225 - 270
      - name: Hundred House
        lat: 52.1631514319225
        lng: -3.34128111617783
        nickname: hundredhouse
        contact: http://www.joomla.malvern-hang.org.uk/index.php?opt
        wind_direction: 293 - 23
      - name: Ingleborough
        lat: 54.1903307053306
        lng: -2.36153545692914
        nickname: ingle
        contact: ''
        wind_direction: 293 - 338
      - name: Jenkin
        lat: 54.6314910564795
        lng: -3.12215075633035
        nickname: jenkin
        contact: ''
        wind_direction: 203 - 180
      - name: Johnny Barns
        lat: 54.231279058356
        lng: -2.5526226972969
        nickname: johnnyb
        contact: ''
        wind_direction: 248 - 315
      - name: Kaim Hill - Fairlie
        lat: 55.7437287968102
        lng: -4.83282671607325
        nickname: kaimh
        contact: https://www.llsclub.co.uk/index.php/fairlie
        wind_direction: 248 - 338
      - name: Kerloch
        lat: 56.9812985691996
        lng: -2.50137441560164
        nickname: kerloch
        contact: ''
        wind_direction: NaN - 180
      - name: Kimmeridge
        lat: 50.6158831806001
        lng: -2.10726846787761
        nickname: kimmeridge
        contact: http://www.shgc.org.uk/
        wind_direction: 203 - 248
      - name: King Tor
        lat: 50.6197699885464
        lng: -3.82313117271254
        nickname: kingtor
        contact: ''
        wind_direction: NaN - 113
      - name: Kintail
        lat: 57.2240783967896
        lng: -5.40623516976557
        nickname: kintail
        contact: ''
        wind_direction: 293 - 338
      - name: Knock Hill
        lat: 57.5843655417227
        lng: -2.77704234437898
        nickname: knockhill
        contact: ''
        wind_direction: 225 - 248
      - name: Knockfarrell
        lat: 57.591
        lng: -4.5047
        nickname: knockfarrell
        contact: ''
        wind_direction: 293 - 23
      - name: Lansdown
        lat: 51.4383895885929
        lng: -2.40125209186545
        nickname: lansdown
        contact: ''
        wind_direction: 158 - 248
      - name: Latrigg
        lat: 54.6125404601435
        lng: -3.12094098904568
        nickname: latrigg
        contact: ''
        wind_direction: 270 - 315
      - name: Lawley
        lat: 52.5816044368811
        lng: -2.73806706797681
        nickname: lawley
        contact: ''
        wind_direction: 315 - 315
      - name: Leadlich
        lat: 57.1343
        lng: -2.79133
        nickname: leadlich
        contact: ''
        wind_direction: 248 - 293
      - name: Leckhampton Hill
        lat: 51.8650932716435
        lng: -2.06185181067167
        nickname: leckhampton
        contact: http://www.malvern-hang.org.uk/leckhamp.shtml
        wind_direction: NaN - 22
      - name: Ledmore
        lat: 58.0704
        lng: -4.9637
        nickname: ledmore
        contact: ''
        wind_direction: 203 - 293
      - name: Liathach
        lat: 57.5583
        lng: -5.4956
        nickname: liathach
        contact: ''
        wind_direction: 158 - 158
      - name: Liddington
        lat: 51.5169614895002
        lng: -1.70152169098773
        nickname: liddington
        contact: http://www.tvhgc.co.uk/
        wind_direction: 315 - 248
      - name: Limerstone
        lat: 50.6513419567903
        lng: -1.38263570179602
        nickname: limerstone
        contact: http://www.flywight.co.uk/
        wind_direction: 180 - 248
      - name: Little Wyvis
        lat: 57.640445274533
        lng: -4.63544252603731
        nickname: littlewyvis
        contact: ''
        wind_direction: 203 - 293
      - name: Llanddewi Brefi
        lat: 52.1671
        lng: -3.9708
        nickname: llandewi
        contact: 'http://www.sewhgpgc.co.uk '
        wind_direction: 270 - 315
      - name: Llandinam
        lat: 52.476
        lng: -3.4211
        nickname: llandinam
        contact: ''
        wind_direction: 245 - 315
      - name: Llangolen
        lat: 52.9561309532669
        lng: -3.13565224259855
        nickname: llangollen
        contact: http://www.tvhgc.co.uk/
        wind_direction: NaN - 22
      - name: Llangorse
        lat: 51.9377818837731
        lng: -3.22287930956485
        nickname: llangorse
        contact: ''
        wind_direction: 248 - 293
      - name: Llantysilio Mountain
        lat: 53.0021023613621
        lng: -3.25375137366289
        nickname: llantysiliomountain
        contact: http://www.tvhgc.co.uk/
        wind_direction: 158 - 158
      - name: Lletyn Gors
        lat: ''
        lng: ''
        nickname: lletyngors
        contact: 'http://www.sewhgpgc.co.uk '
        wind_direction: NaN - NaN
      - name: Loch Walton
        lat: 56.0616
        lng: -4.1407
        nickname: lochw
        contact: ''
        wind_direction: 158 - 203
      - name: Long Mountain
        lat: 52.6749453405274
        lng: -3.06358109838679
        nickname: longmountain
        contact: http://www.flymidwales.org.uk
        wind_direction: 315 - 360
      - name: Long Mynd
        lat: 52.5222873211862
        lng: -2.87986005952666
        nickname: longmynd
        contact: http://www.longmynd.org/
        wind_direction: 225 - 330, 270 - 338
      - name: Long Mynd South
        lat: 52.4952446947121
        lng: -2.89449835032196
        nickname: longmyndsouth
        contact: http://www.longmynd.org/
        wind_direction: 248 - 338
      - name: Longridge fell
        lat: 53.8659
        lng: -2.5138
        nickname: longridge
        contact: ''
        wind_direction: 315 - 22
      - name: Longstone Edge
        lat: 53.2547235109548
        lng: -1.69548019151607
        nickname: longstoneedge
        contact: www.derbyshiresoaringclub.org.uk
        wind_direction: 180 - 158
      - name: Lords Seat
        lat: 53.3479
        lng: -1.8197
        nickname: lordsseat
        contact: www.derbyshiresoaringclub.org.uk
        wind_direction: 315 - 45
      - name: Lossburn Resevoir
        lat: 56.1749
        lng: -3.89259
        nickname: lossburn
        contact: ''
        wind_direction: 113 - 248
      - name: Luss
        lat: 56.1133445500739
        lng: -4.65520842408917
        nickname: luss
        contact: ''
        wind_direction: 23 - 248
      - name: Maes Knoll
        lat: 51.3917153470522
        lng: -2.57658537573684
        nickname: maesKnoll
        contact: ''
        wind_direction: 113 - 113
      - name: Magic
        lat: 51.8880180456789
        lng: -3.13639821347821
        nickname: magic
        contact: ''
        wind_direction: 113 - 248
      - name: Mam Tor(E)
        lat: 53.3496
        lng: -1.8099
        nickname: mamtor
        contact: www.derbyshiresoaringclub.org.uk
        wind_direction: 45 - 135
      - name: Mam Tor(NW)
        lat: 53.3496
        lng: -1.8099
        nickname: mamtor
        contact: www.derbyshiresoaringclub.org.uk
        wind_direction: 290 - 335
      - name: Mappleton
        lat: 53.8769073450014
        lng: -0.13417267626151
        nickname: mappleton
        contact: ''
        wind_direction: 68 - 68
      - name: Marske
        lat: 54.595800817086
        lng: -1.01149544992422
        nickname: marske
        contact: ''
        wind_direction: 23 - 68
      - name: Meall a Bhainne
        lat: 57.7332
        lng: -5.0422
        nickname: meallabhainne
        contact: ''
        wind_direction: 23 - 68
      - name: Meall a Bhuiridh
        lat: 56.6094
        lng: -4.83648
        nickname: mab
        contact: ''
        wind_direction: 113 - 158
      - name: Meall Chuaich
        lat: ''
        lng: ''
        nickname: meallchuaich
        contact: ''
        wind_direction: NaN - NaN
      - name: Meall Gorm
        lat: 57.4025
        lng: -5.7018
        nickname: meallgorm
        contact: ''
        wind_direction: 113 - 180
      - name: Meall nan Tarmachan
        lat: 56.516
        lng: -4.29342
        nickname: mnt
        contact: ''
        wind_direction: 158 - 113
      - name: Meall Reamhar - Corrymucklock
        lat: 56.4754
        lng: -3.81254
        nickname: meallr
        contact: ''
        wind_direction: 23 - 68
      - name: Meall Reamhar - Sma Glen
        lat: 56.4754
        lng: -3.81254
        nickname: meallr2
        contact: ''
        wind_direction: 23 - 68
      - name: Mercury
        lat: 50.9741031698539
        lng: -1.03823125302154
        nickname: mercury
        contact: http://skysurfingclub.co.uk/
        wind_direction: 68 - 113
      - name: Mere
        lat: 51.1087540716701
        lng: -2.2717949488275
        nickname: mere
        contact: Avon club
        wind_direction: 90 - 203
      - name: Merthyr Common
        lat: 51.7267887008955
        lng: -3.33361809751706
        nickname: merthyr
        contact: 'http://www.sewhgpgc.co.uk '
        wind_direction: NaN - 22
      - name: Milk Hill
        lat: 51.3788024702849
        lng: -1.85633972076703
        nickname: milkhill
        contact: http://www.tvhgc.co.uk/
        wind_direction: 158 - 293
      - name: Milk Hill White Horse
        lat: 51.3726294590587
        lng: -1.85770891493108
        nickname: mhwh
        contact: 'http://www.tvhgc.co.uk/ '
        wind_direction: 158 - 293
      - name: Milky
        lat: 51.3736070918678
        lng: -1.74414706637979
        nickname: milky
        contact: http://www.tvhgc.co.uk/
        wind_direction: 45 - 203
      - name: Millington
        lat: 53.9520875803701
        lng: -0.72623039530028
        nickname: millington
        contact: ''
        wind_direction: 270 - 360
      - name: Minster
        lat: ''
        lng: ''
        nickname: minster
        contact: http://www.shgc.org.uk/
        wind_direction: NaN - NaN
      - name: Model Ridge
        lat: 54.4223031576928
        lng: -1.1927703132795
        nickname: modelridge
        contact: ''
        wind_direction: NaN - 22
      - name: Moel Berfedd
        lat: 53.0817823031519
        lng: -4.01074095861946
        nickname: moelberfedd
        contact: http://www.tvhgc.co.uk/
        wind_direction: 68 - 90
      - name: Moel Eilio
        lat: 53.1085051016799
        lng: -4.14010692050232
        nickname: moeleilio
        contact: http://www.tvhgc.co.uk/
        wind_direction: 315 - 338
      - name: Moel Famau
        lat: 53.138640847257
        lng: -3.25960811773958
        nickname: moelfamau
        contact: http://www.tvhgc.co.uk/
        wind_direction: 270 - 270
      - name: Moneylaws
        lat: 55.6061733262705
        lng: -2.20526534683158
        nickname: moneylaws
        contact: ''
        wind_direction: 315 - 338
      - name: Monks Down
        lat: 50.986366248858
        lng: -2.08804487279518
        nickname: monksdown
        contact: http://www.wessexhgpg.org.uk
        wind_direction: 315 - 45
      - name: Moorfoots
        lat: 55.7786643326573
        lng: -3.0366111937737
        nickname: moorfoots
        contact: https://www.llsclub.co.uk/index.php/moorfoots
        wind_direction: 293 - 338
      - name: Morrone
        lat: 56.9809
        lng: -3.42895
        nickname: morrone
        contact: ''
        wind_direction: 293 - 338
      - name: Mount Benger
        lat: 55.5305
        lng: -3.0924
        nickname: ''
        contact: benger
        wind_direction: 210 - 295
      - name: Mount Caburn
        lat: 50.8615086567049
        lng: 0.05094668894103
        nickname: caburn
        contact: http://www.shgc.org.uk/
        wind_direction: 203 - 203
      - name: Much Marcle
        lat: 51.9917036411717
        lng: -2.53982024703399
        nickname: muchmarcle
        contact: http://www.malvern-hang.org.uk/
        wind_direction: 248 - 270
      - name: Mynydd Meio
        lat: 51.5913970974901
        lng: -3.27578213161777
        nickname: mynydd
        contact: 'http://www.sewhgpgc.co.uk '
        wind_direction: 23 - 68
      - name: Myreton
        lat: 56.1593350372532
        lng: -3.84316355149448
        nickname: myreton
        contact: https://www.llsclub.co.uk/index.php/myreton
        wind_direction: 180 - 180
      - name: Na Cnapanan
        lat: 56.9655694575969
        lng: -4.5100743028292
        nickname: nacnap
        contact: ''
        wind_direction: 113 - 180
      - name: Nantymoel
        lat: ''
        lng: ''
        nickname: nantymoel
        contact: ''
        wind_direction: NaN - NaN
      - name: Nappa Scar
        lat: 54.3278556960486
        lng: -2.06233558787737
        nickname: nappa
        contact: ''
        wind_direction: 180 - 225
      - name: Nont Sarahs
        lat: 53.6185456420682
        lng: -1.97350301698265
        nickname: nonts
        contact: ''
        wind_direction: 158 - 225
      - name: North Hill
        lat: 51.2195937315326
        lng: -3.50074227880227
        nickname: northhill
        contact: ''
        wind_direction: NaN - 22
      - name: North Table
        lat: 57.4027
        lng: -6.6278
        nickname: northtable
        contact: ''
        wind_direction: 180 - 135
      - name: Olivers Castle
        lat: 51.3805760082177
        lng: -2.00104060698221
        nickname: oliverscastle
        contact: http://www.tvhgc.co.uk/
        wind_direction: 293 - 293
      - name: Pandy
        lat: 51.9087556213926
        lng: -2.99531037333717
        nickname: pandy
        contact: http://www.sewhgpgc.co.uk
        wind_direction: 45 - 113
      - name: Parlick
        lat: 53.9005
        lng: -2.6161
        nickname: parlick
        contact: ''
        wind_direction: 67 - 292
      - name: Pauls Grove
        lat: 51.5074
        lng: -1.1048
        nickname: grove
        contact: http://www.shgc.org.uk/
        wind_direction: 203 - 293
      - name: Peak Hill
        lat: 50.6771343979705
        lng: -3.2624879486037
        nickname: peakhill
        contact: http://www.shgc.org.uk/
        wind_direction: 225 - 270
      - name: Pen Dias
        lat: 52.4018
        lng: -4.0826
        nickname: pendias
        contact: http://www.flymidwales.org.uk
        wind_direction: 225 - 293
      - name: Pen-y-Ghent (SE)
        lat: 54.1559063253524
        lng: -2.24979625305512
        nickname: pygse
        contact: ''
        wind_direction: 248 - 293
      - name: Pen-y-ghent (W)
        lat: 54.1559063253524
        lng: -2.24979625305512
        nickname: pygw
        contact: ''
        wind_direction: 248 - 293
      - name: Pendle
        lat: 53.8574484582606
        lng: -2.33798698512133
        nickname: pendle
        contact: ''
        wind_direction: 270 - 338
      - name: Penycloddiau East
        lat: 53.2048392805485
        lng: -3.30912026630049
        nickname: penycloddiaueast
        contact: http://www.tvhgc.co.uk/
        wind_direction: 68 - 68
      - name: Perran Sands
        lat: 50.3610062320246
        lng: -5.14810058364209
        nickname: perransands
        contact: ''
        wind_direction: 248 - 338
      - name: Pinnacle Hill
        lat: 52.0767686629804
        lng: -2.34008501125458
        nickname: pinnacle
        contact: http://www.malvern-hang.org.uk/
        wind_direction: 180 - 315
      - name: Polhawn Fields
        lat: 50.326647637757
        lng: -4.21734883964014
        nickname: polhawn
        contact: ''
        wind_direction: 225 - 293
      - name: Pontlottyn
        lat: 51.7381165220617
        lng: -3.28118381020671
        nickname: pontlottyn
        contact: http://www.swwsc.co.uk
        wind_direction: 23 - 68
      - name: Porlock Hill
        lat: 51.2054777777778
        lng: -3.62750833333333
        nickname: porlock
        contact: ''
        wind_direction: NaN - 22
      - name: Pressendye
        lat: 57.1677146120411
        lng: -2.8450291586517
        nickname: pressendye
        contact: ''
        wind_direction: 203 - 180
      - name: Pule
        lat: 53.590391396207
        lng: -1.9534529520855
        nickname: pule
        contact: ''
        wind_direction: 248 - 293
      - name: Putsborough
        lat: 51.14425
        lng: -4.23154166666667
        nickname: putsborough
        contact: ''
        wind_direction: NaN - 22
      - name: Quinag
        lat: 58.1987
        lng: -5.0234
        nickname: quinag
        contact: ''
        wind_direction: NaN - 22
      - name: Raddon Hill
        lat: 50.8177530680375
        lng: -3.56350070725479
        nickname: raddon
        contact: ''
        wind_direction: 158 - 203
      - name: Rhigos
        lat: 51.7163120700171
        lng: -3.55583994748944
        nickname: rhigos
        contact: 'http://www.sewhgpgc.co.uk '
        wind_direction: 293 - 23
      - name: Rhossili
        lat: 51.5724733084627
        lng: -4.28377516403758
        nickname: rhossili
        contact: http://www.swwsc.co.uk/
        wind_direction: 293 - 248
      - name: Rifle Range
        lat: 51.1087540716701
        lng: -2.2717949488275
        nickname: riflerange
        contact: ' '
        wind_direction: 90 - 203
      - name: Ringstead
        lat: 50.6403407749189
        lng: -2.34194000637083
        nickname: ringstead
        contact: http://www.shgc.org.uk/
        wind_direction: 158 - 225
      - name: Ross
        lat: 55.5265892566421
        lng: -5.16608205515441
        nickname: ross
        contact: ''
        wind_direction: 68 - 68
      - name: Rushup
        lat: 53.3485087290186
        lng: -1.83581901096046
        nickname: rushup
        contact: www.derbyshiresoaringclub.org.uk
        wind_direction: NaN - 22
      - name: Rutland
        lat: 52.62871
        lng: -0.60923
        nickname: rutland
        contact: rutlandairsport.wordpress.com
        wind_direction: 1 - 360
      - name: Rybury
        lat: 51.372268188847
        lng: -1.88015946287394
        nickname: rybury
        contact: http://www.tvhgc.co.uk/
        wind_direction: 203 - 315
      - name: Sail Mhor
        lat: 57.8461
        lng: -5.2989
        nickname: sailmhor
        contact: ''
        wind_direction: NaN - 68
      - name: Saltburn
        lat: 54.584259834498
        lng: -0.96264752932945
        nickname: saltburn
        contact: ''
        wind_direction: 293 - 68
      - name: Sandy Bay
        lat: 50.6170010524404
        lng: -3.35937124324685
        nickname: bay
        contact: http://www.shgc.org.uk/
        wind_direction: 113 - 135
      - name: Sandymouth Bay
        lat: 50.8599987544519
        lng: -4.55509393125528
        nickname: sandymouth
        contact: ''
        wind_direction: 270 - 270
      - name: Scar Hill
        lat: 57.1887899241059
        lng: -2.85715811365085
        nickname: scarhill
        contact: ''
        wind_direction: 315 - 23
      - name: Seaham
        lat: 54.8504
        lng: -1.343
        nickname: seaham
        contact: ''
        wind_direction: 68 - 90
      - name: Selsley Common
        lat: 51.7273413086299
        lng: -2.25040534282754
        nickname: selsley
        contact: ' http://www.avonhgpg.co.uk/ '
        wind_direction: 293 - 360
      - name: Selworthy Sands
        lat: 51.2289376112685
        lng: -3.57004768202716
        nickname: selworthysands
        contact: ''
        wind_direction: NaN - 22
      - name: Semer Water
        lat: 54.2878383250504
        lng: -2.14609261127461
        nickname: semer
        contact: ''
        wind_direction: 315 - 360
      - name: Sgurr Alasdair
        lat: 57.1974575148764
        lng: -6.23172204568361
        nickname: sgurra
        contact: ''
        wind_direction: 113 - 203
      - name: Sharpenhoe
        lat: 51.9577035731023
        lng: -0.44610880821966
        nickname: sharpenhoe
        contact: http://dunstablehpc.co.uk/
        wind_direction: 23 - 113
      - name: Shining Tor
        lat: 53.2583218618522
        lng: -2.00845992134832
        nickname: shiningtor
        contact: http://www.peaksoaring.co.uk
        wind_direction: 225 - 338
      - name: Sourton Tor
        lat: 50.6899827341741
        lng: -4.06611176915728
        nickname: sourton
        contact: ''
        wind_direction: 293 - 293
      - name: Souther Fell
        lat: 54.6547233937082
        lng: -2.99868637476086
        nickname: souther
        contact: ''
        wind_direction: 68 - 158
      - name: St Bees
        lat: 54.4891113194135
        lng: -3.6031906063078
        nickname: stbees
        contact: ''
        wind_direction: 225 - 225
      - name: St Cats
        lat: 50.5965939316372
        lng: -1.30554872124239
        nickname: stcats
        contact: http://www.flywight.co.uk/
        wind_direction: 248 - 315
      - name: St Cyrus
        lat: 56.7730776088438
        lng: -2.40637349718342
        nickname: stcyrus
        contact: ''
        wind_direction: 113 - 158
      - name: St. Agnes
        lat: 50.3181939886033
        lng: -5.22895443416641
        nickname: stagnes
        contact: ''
        wind_direction: NaN - 338
      - name: Stags Fell
        lat: 54.3252164846685
        lng: -2.19364628861385
        nickname: stags
        contact: ''
        wind_direction: 203 - 180
      - name: Stanage
        lat: 53.3454
        lng: -1.6299
        nickname: stanage
        contact: www.derbyshiresoaringclub.org.uk
        wind_direction: 210 - 260
      - name: Streatley Common
        lat: 51.5188015201089
        lng: -1.14979884222017
        nickname: common
        contact: http://www.shgc.org.uk/
        wind_direction: 68 - 68
      - name: Streatley North
        lat: 51.5222671856919
        lng: -1.18792540051407
        nickname: snorth
        contact: http://www.shgc.org.uk/
        wind_direction: NaN - 22
      - name: Strete
        lat: 50.3027473938485
        lng: -3.6356948640072
        nickname: strete
        contact: ''
        wind_direction: 90 - 158
      - name: Stronend (NW)
        lat: 56.0776
        lng: -4.2083
        nickname: stronendnw
        contact: https://www.llsclub.co.uk/index.php/stronend
        wind_direction: 203 - 23
      - name: Struddick Farm
        lat: 50.366172724562
        lng: -4.40427253607029
        nickname: struddick
        contact: ''
        wind_direction: 180 - 180
      - name: Sugar Hill
        lat: 51.5063264730435
        lng: -1.65818213859134
        nickname: sugarhill
        contact: http://www.tvhgc.co.uk/
        wind_direction: 180 - 248
      - name: Suidhe Fhearghas
        lat: 55.6605468564751
        lng: -5.19712183467706
        nickname: suidhe
        contact: ''
        wind_direction: NaN - 22
      - name: Sutton Bank
        lat: ''
        lng: ''
        nickname: suttonb
        contact: ''
        wind_direction: NaN - NaN
      - name: Swarth Fell
        lat: 54.364716005893
        lng: -2.37586393444005
        nickname: swarth
        contact: ''
        wind_direction: 23 - 68
      - name: Swinside
        lat: 54.6067681934731
        lng: -3.28080365275533
        nickname: swinside
        contact: ''
        wind_direction: 225 - 338
      - name: Swyre Hill
        lat: 50.687
        lng: -2.66687
        nickname: swyre
        contact: http://www.shgc.org.uk/
        wind_direction: 203 - 248
      - name: Tailbridge
        lat: 54.4405692743722
        lng: -2.30306321652964
        nickname: tailbridge
        contact: ''
        wind_direction: 203 - 315
      - name: Talisker plage
        lat: ''
        lng: ''
        nickname: talisker
        contact: ''
        wind_direction: NaN - NaN
      - name: Talybont
        lat: 51.8561886032299
        lng: -3.37556409483623
        nickname: talybont
        contact: http://www.avonhgpg.co.uk/sites/talybont.php
        wind_direction: 203 - 248
      - name: Tan Hill
        lat: 51.3798999626929
        lng: -1.88072518649666
        nickname: tanhill
        contact: http://www.tvhgc.co.uk/
        wind_direction: 90 - 203
      - name: Tap o Noth
        lat: 57.3506233919116
        lng: -2.85820861552767
        nickname: taponoth
        contact: https://www.ahpc.org.uk/sites/tap-o-noth/
        wind_direction: 203 - 158
      - name: Telegraph Hill
        lat: 50.6426331206923
        lng: -3.53723909503943
        nickname: telegraphhill
        contact: ''
        wind_direction: 270 - 360, 68 - 68
      - name: Telegraph Hill
        lat: 50.6405
        lng: -3.53602
        nickname: telegraphhill
        contact: ''
        wind_direction: []
      - name: The Blorenge
        lat: 51.8073284226637
        lng: -3.0559017888462
        nickname: blorenge
        contact: http://www.sewhgpgc.co.uk
        wind_direction: 23 - 360
      - name: The Quirang - Totternish
        lat: 57.6291767354177
        lng: -6.28904166728169
        nickname: quirang
        contact: ''
        wind_direction: 45 - 113
      - name: The Roaches
        lat: 53.1689241243135
        lng: -2.00292379311362
        nickname: theroaches
        contact: http://www.tvhgc.co.uk/
        wind_direction: 203 - 270
      - name: The Wrekin
        lat: 52.6694144356796
        lng: -2.55185341686827
        nickname: thewrekin
        contact: ''
        wind_direction: 293 - 338
      - name: Thundergay
        lat: 55.6542
        lng: -5.3408
        nickname: drumadoon
        contact: ''
        wind_direction: 293 - 338
      - name: Thurnham
        lat: 51.2946639583959
        lng: 0.58832306620904
        nickname: thurnham
        contact: http://www.shgc.org.uk/
        wind_direction: 180 - 270
      - name: Tinto (Alt North)
        lat: 55.6039712972966
        lng: -3.65887417139863
        nickname: tintona
        contact: ''
        wind_direction: NaN - 338
      - name: Tinto (North)
        lat: ''
        lng: ''
        nickname: tinton
        contact: https://www.llsclub.co.uk/index.php/tinto-north
        wind_direction: NaN - NaN
      - name: Tinto (South)
        lat: 55.5923152990442
        lng: -3.69958045488563
        nickname: tintos
        contact: https://www.llsclub.co.uk/index.php/tinto-south
        wind_direction: 23 - 338
      - name: Tom na Gruagaich
        lat: 57.5776
        lng: -5.5863
        nickname: tomna
        contact: ''
        wind_direction: 248 - 158
      - name: Tops of Fichell
        lat: ''
        lng: ''
        nickname: tops
        contact: https://www.ahpc.org.uk/sites/tops-of-fichell/
        wind_direction: NaN - NaN
      - name: Torr - Lochranza
        lat: 55.6939730305106
        lng: -5.26207702654946
        nickname: torrl
        contact: ''
        wind_direction: 293 - 338
      - name: Treak Cliff
        lat: 53.344
        lng: -1.79897
        nickname: treakcliff
        contact: www.derbyshiresoaringclub.org.uk
        wind_direction: 40 - 135
      - name: Trentishoe Fields
        lat: 51.2176475132461
        lng: -3.95499014603524
        nickname: trentishoe
        contact: ''
        wind_direction: NaN - 22
      - name: Triscombe
        lat: 51.1098944047502
        lng: -3.20185376488544
        nickname: triscombe
        contact: http://www.dscondors.co.uk/
        wind_direction: 203 - 248
      - name: Trout Beck
        lat: 54.4211505773761
        lng: -2.88917162442237
        nickname: troutb
        contact: ''
        wind_direction: 248 - 293
      - name: Truleigh Hill
        lat: 50.8858226238953
        lng: -0.25894972828284
        nickname: truleigh
        contact: http://www.shgc.org.uk/
        wind_direction: 23 - 338
      - name: Ubley
        lat: 51.3115966135659
        lng: -2.67609106388554
        nickname: ubley
        contact: ' http://www.avonhgpg.co.uk/ '
        wind_direction: NaN - 68
      - name: Uffington
        lat: 51.5773219123224
        lng: -1.56660402076106
        nickname: uffington
        contact: ''
        wind_direction: 315 - 45
      - name: Ullock Pike
        lat: 54.6619472032231
        lng: -3.17979421938684
        nickname: ullock
        contact: ''
        wind_direction: 225 - 315
      - name: Walla Crag
        lat: 54.5834043632722
        lng: -3.118559590954
        nickname: walla
        contact: ''
        wind_direction: 270 - 338
      - name: Warren Cottage
        lat: ''
        lng: ''
        nickname: warrenc
        contact: ''
        wind_direction: NaN - NaN
      - name: Warren Cottage
        lat: 50.3016
        lng: -4.06038
        nickname: warrenc
        contact: ''
        wind_direction: []
      - name: Waystones Edge
        lat: 53.6276
        lng: -1.9715
        nickname: waystones
        contact: ''
        wind_direction: 293 - 23
      - name: Westbury
        lat: 51.264011941649
        lng: -2.14588790942305
        nickname: westbury
        contact: http://avonhgpg.co.uk/
        wind_direction: NaN - 22
      - name: Wether Fell
        lat: 54.2704151469978
        lng: -2.20466220003877
        nickname: wf
        contact: ''
        wind_direction: 248 - 338
      - name: Wetton Hill
        lat: 53.1066062146228
        lng: -1.83547686752341
        nickname: wettonhill
        contact: http://www.tvhgc.co.uk/
        wind_direction: 248 - 23
      - name: Whernside
        lat: 54.2241222315261
        lng: -2.40415309337929
        nickname: whernside
        contact: ''
        wind_direction: 68 - 158
      - name: Whernside (NW)
        lat: ''
        lng: ''
        nickname: whernsiden
        contact: ''
        wind_direction: NaN - NaN
      - name: Whernside (SW)
        lat: 54.2241222315261
        lng: -2.40415309337929
        nickname: whernsidew
        contact: ''
        wind_direction: 68 - 158
      - name: Whitbarrow Scar
        lat: 54.257957758718
        lng: -2.84201706773509
        nickname: whitbarrow
        contact: ''
        wind_direction: 113 - 135
      - name: White Corries
        lat: 56.6280294090021
        lng: -4.84102755109905
        nickname: whitecorries
        contact: https://www.walkhighlands.co.uk/fortwilliam/buachailleetivemor.shtml
        wind_direction: NaN - 22
      - name: White Field
        lat: 51.4880061861198
        lng: -1.70444183406358
        nickname: whitefield
        contact: http://www.tvhgc.co.uk/
        wind_direction: 293 - 23
      - name: White Hill
        lat: 51.3061694444444
        lng: -1.25828888888889
        nickname: whitehill
        contact: http://www.tvhgc.co.uk/
        wind_direction: 270 - 338
      - name: White Horse
        lat: 50.6593
        lng: -2.4044
        nickname: whitehorse
        contact: http://www.shgc.org.uk/
        wind_direction: 158 - 225
      - name: Whitesheet
        lat: 51.0131
        lng: -2.09194
        nickname: whitesheet
        contact: http://www.wessexhgpg.org.uk
        wind_direction: 225 - 315
      - name: Whiteside - White Knowe
        lat: ''
        lng: ''
        nickname: whiteside
        contact: ''
        wind_direction: NaN - NaN
      - name: Whitestones
        lat: 54.378195568486
        lng: -2.56385132787318
        nickname: whitestones
        contact: ''
        wind_direction: 203 - 293
      - name: Whitewool
        lat: 50.9788643536916
        lng: -1.07615397918731
        nickname: whitewool
        contact: http://skysurfingclub.co.uk/
        wind_direction: 68 - 68
      - name: Whitsand
        lat: 50.3450424784417
        lng: -4.24837917670151
        nickname: whitsand
        contact: ''
        wind_direction: 225 - 225
      - name: Widgery Cross
        lat: 50.6520834405165
        lng: -4.06803815211599
        nickname: widgery
        contact: ''
        wind_direction: 248 - 315
      - name: Wild Boar Fell
        lat: ''
        lng: ''
        nickname: wbf
        contact: ''
        wind_direction: NaN - NaN
      - name: Windbank
        lat: 54.1278807389391
        lng: -2.04968493382227
        nickname: windbank
        contact: ''
        wind_direction: 23 - 113
      - name: Winter Hill
        lat: 53.6306754974874
        lng: -2.52052772000899
        nickname: winterhill
        contact: ''
        wind_direction: 315 - 45
      - name: Withycombe
        lat: 51.162241509023
        lng: -3.42156988751323
        nickname: withycombe
        contact: ''
        wind_direction: 23 - 45
      - name: Wolf Craggs
        lat: 54.5923516730532
        lng: -2.98180966241917
        nickname: wolfc
        contact: ''
        wind_direction: NaN - 22
      - name: Woolacombe
        lat: 51.1574040631942
        lng: -4.20626391281866
        nickname: woolacombe
        contact: ''
        wind_direction: 248 - 315
      - name: Worcester Beacon
        lat: 52.1043
        lng: -2.3395
        nickname: worcbeacon
        contact: http://www.malvern-hang.org.uk/
        wind_direction: 248 - 270
      - name: Wrynose Pass
        lat: 54.4184274276989
        lng: -3.11191714939961
        nickname: wnp
        contact: ''
        wind_direction: 45 - 135
