countries:
  - country: FR
    sites:
      - name: St-Andre-les-Alpes
        lat: 44.00914
        lng: 6.52729
        nickname: StAndre
        contact: ''
        wind_directions: []
  - country: CO
    sites:
      - name: Aguapanella
        lat: 4.40436
        lng: -76.21074
        nickname: Aguapanella
        contact: ''
        wind_directions: []
      - name: Los Tanques
        lat: 4.4765
        lng: -76.1535
        nickname: LosTanques
        contact: ''
        wind_directions: []
  - country: TR
    sites:
      - name: Cameli
        lat: 36.98027
        lng: 29.31488
        nickname: Cameli
        contact: ''
        wind_directions: []
  - country: BR
    sites:
      - name: Assu
        lat: -5.595813
        lng: -36.967733
        nickname: assu
        contact: ''
        wind_directions: []
      - name: Caico
        lat: -6.437185
        lng: -37.082537
        nickname: caico
        contact: ''
        wind_directions: []
      - name: Quixada
        lat: -5.0363
        lng: -39.007838
        nickname: quixada
        contact: ''
        wind_directions: []
      - name: Cachoeirinha
        lat: -6.62255
        lng: -35.536918
        nickname: Cachoeirinha
        contact: ''
        wind_directions: []
      - name: Tacima
        lat: -6.499883
        lng: -35.66025
        nickname: tacima
        contact: ''
        wind_directions: []
      - name: Patu
        lat: -6.150083
        lng: -37.626377
        nickname: patu
        contact: ''
        wind_directions: []
  - country: UK
    sites:
      - name: Aberfoyle
        lat: 56.1884
        lng: -4.40228
        nickname: aberf
        contact: ''
        wind_directions: []
      - name: Abertysswg
        lat: 51.7452
        lng: -3.24561
        nickname: abertysswg
        contact: http://www.swwsc.co.uk
        wind_directions: []
      - name: Aberystwyth
        lat: 52.3488
        lng: -4.118
        nickname: aberystwyth
        contact: http://www.flymidwales.org.uk
        wind_directions: []
      - name: Abington
        lat: 55.5014
        lng: -3.7351
        nickname: abington
        contact: http://www.cloudbusters.co.uk/
        wind_directions: []
      - name: Afton Down
        lat: 50.6706
        lng: -1.4811
        nickname: aftondown
        contact: http://www.shgc.org.uk/
        wind_directions: []
      - name: Aonach Mor
        lat: 56.8421
        lng: -4.97092
        nickname: aonach
        contact: ''
        wind_directions: []
      - name: Arreton
        lat: 50.6808
        lng: -1.228
        nickname: arreton
        contact: http://www.shgc.org.uk/
        wind_directions: []
      - name: Auchinleck Hill - Thornhill
        lat: 55.2698
        lng: -3.7043
        nickname: auchinleck
        contact: https://www.llsclub.co.uk/index.php/thornhill
        wind_directions: []
      - name: Bache Hill
        lat: 52.266
        lng: -3.156
        nickname: bachehill
        contact: ''
        wind_directions: []
      - name: Back of Ecton
        lat: 53.12
        lng: -1.85502
        nickname: backofecton
        contact: http://www.tvhgc.co.uk/
        wind_directions: []
      - name: Bald Hill
        lat: 51.6597
        lng: -0.9574
        nickname: baldhill
        contact: http://www.shgc.org.uk/
        wind_directions: []
      - name: Ballard Down
        lat: 50.6299
        lng: -1.9453
        nickname: ballard
        contact: http://www.shgc.org.uk/
        wind_directions: []
      - name: Balquidder
        lat: 56.3533
        lng: -4.4831
        nickname: balq
        contact: ''
        wind_directions: []
      - name: Bank Hill
        lat: 56.1739
        lng: -3.6848
        nickname: bankhill
        contact: ''
        wind_directions: []
      - name: Barkin Fell
        lat: 54.2766
        lng: -2.49716
        nickname: barkin
        contact: ''
        wind_directions: []
      - name: Barkin Fell
        lat: 54.2766
        lng: -2.49716
        nickname: barkin
        contact: ''
        wind_directions: []
      - name: Barton Fell
        lat: 54.5831
        lng: -2.83239
        nickname: bartonfell
        contact: ''
        wind_directions: []
      - name: Barton on Sea
        lat: 50.7352
        lng: -1.6623
        nickname: bartonsea
        contact: http://www.shgc.org.uk/
        wind_directions: []
      - name: Beachy Head
        lat: 50.7391
        lng: 0.2534
        nickname: head
        contact: http://www.shgc.org.uk/
        wind_directions: []
      - name: Bealach na Ba
        lat: 57.4128
        lng: -5.7011
        nickname: bealach
        contact: ''
        wind_directions: []
      - name: Beesands
        lat: 50.2475
        lng: -3.66223
        nickname: beesands
        contact: ''
        wind_directions: []
      - name: Beinn Bhan
        lat: 57.4248
        lng: -5.6297
        nickname: beinnbhan
        contact: ''
        wind_directions: []
      - name: Beinn Eighe
        lat: 57.5783
        lng: -5.4032
        nickname: beinneighe
        contact: ''
        wind_directions: []
      - name: Beinn Ghlas
        lat: 56.5326
        lng: -4.23942
        nickname: beinng
        contact: ''
        wind_directions: []
      - name: Beinn Leabhainn
        lat: 56.4247
        lng: -4.3232
        nickname: beinnl
        contact: ''
        wind_directions: []
      - name: Beinn Liath Mhor
        lat: 57.5117
        lng: -5.38893
        nickname: beinnlitah
        contact: ''
        wind_directions: []
      - name: Beinn na Feusaige
        lat: 57.5656
        lng: -5.1047
        nickname: beinnnaf
        contact: ''
        wind_directions: []
      - name: Beinn nam Ban
        lat: 57.87
        lng: -5.1949
        nickname: beinnnamban
        contact: ''
        wind_directions: []
      - name: Belstone
        lat: 50.6979
        lng: -3.96418
        nickname: belstone
        contact: ''
        wind_directions: []
      - name: Ben Bowie
        lat: 56.0074
        lng: -4.6715
        nickname: benbowie
        contact: ''
        wind_directions: []
      - name: Ben Dorain
        lat: 56.5191
        lng: -4.7293
        nickname: bendorain
        contact: ''
        wind_directions: []
      - name: Ben Ledi
        lat: 56.2526
        lng: -4.3061
        nickname: benledi
        contact: ''
        wind_directions: []
      - name: Ben Reid
        lat: 56.8628
        lng: -3.11771
        nickname: benreid
        contact: ''
        wind_directions: []
      - name: Ben Rinnes
        lat: 57.405
        lng: -3.23712
        nickname: benrinnes
        contact: ''
        wind_directions: []
      - name: Ben Toaig
        lat: 56.5636
        lng: -4.83256
        nickname: bentoaig
        contact: ''
        wind_directions: []
      - name: Ben Wyvis
        lat: 57.6623
        lng: -4.6021
        nickname: benwyvis
        contact: ''
        wind_directions: []
      - name: Bewaldeth
        lat: 54.7136
        lng: -3.22447
        nickname: bewaldeth
        contact: ''
        wind_directions: []
      - name: Bishops Hill
        lat: 56.2159
        lng: -3.3163
        nickname: bishops
        contact: ''
        wind_directions: []
      - name: Black Combe
        lat: 54.2638
        lng: -3.35518
        nickname: blackc
        contact: ''
        wind_directions: []
      - name: Black Hill
        lat: 52.0637
        lng: -2.34185
        nickname: blackhill
        contact: http://www.malvern-hang.org.uk/
        wind_directions: []
      - name: Black Hill
        lat: 56.9552
        lng: -2.2024
        nickname: blackhillscot
        contact: ''
        wind_directions: []
      - name: Black Hill (Manaton)
        lat: 50.5979
        lng: -3.74662
        nickname: manaton
        contact: ''
        wind_directions: []
      - name: Black Mount (E) - Glas Bheinn
        lat: 56.5872
        lng: -4.72878
        nickname: blackmounte
        contact: ''
        wind_directions: []
      - name: Black Mount (W)
        lat: 56.5879
        lng: -4.7632
        nickname: blackmountw
        contact: ''
        wind_directions: []
      - name: Blacka Moor
        lat: 53.32
        lng: -1.5848
        nickname: blackamoor
        contact: http://friendsofblackamoor.co.uk/default.aspx
        wind_directions: []
      - name: Blackhall
        lat: 54.7528
        lng: -1.2825
        nickname: blackhall
        contact: ''
        wind_directions: []
      - name: Blacksidend
        lat: 55.54
        lng: -4.245
        nickname: blacksidend
        contact: ''
        wind_directions: []
      - name: Blackstone Edge
        lat: 53.6428
        lng: -2.0516
        nickname: blackstone
        contact: ''
        wind_directions: []
      - name: Blaenavon
        lat: 51.7806
        lng: -3.1387
        nickname: blaenavon
        contact: http://www.swwsc.co.uk
        wind_directions: []
      - name: Blease Fell
        lat: 54.6247
        lng: -3.07703
        nickname: blease
        contact: ''
        wind_directions: []
      - name: Bodesbeck Law
        lat: 55.3803
        lng: -3.3118
        nickname: bodesbeck
        contact: ''
        wind_directions: []
      - name: Bossington Hill
        lat: 51.2246
        lng: -3.57258
        nickname: bossington
        contact: ''
        wind_directions: []
      - name: Bradwell
        lat: 53.3214
        lng: -1.7296
        nickname: bradwell
        contact: www.derbyshiresoaringclub.org.uk
        wind_directions: 225 - 330
      - name: Brampton Quarry
        lat: 50.9731
        lng: -3.47859
        nickname: bramptonq
        contact: ''
        wind_directions: []
      - name: Branscombe
        lat: 50.688
        lng: -3.1553
        nickname: branscombe
        contact: http://www.shgc.org.uk/
        wind_directions: []
      - name: Brant Side
        lat: 54.2764
        lng: -2.34525
        nickname: brant
        contact: ''
        wind_directions: []
      - name: Bratton Ball
        lat: 51.2146
        lng: -3.51066
        nickname: brattonball
        contact: ''
        wind_directions: []
      - name: Brent Knoll
        lat: 51.2538
        lng: -2.94584
        nickname: brentknoll
        contact: http://www.dscondors.co.uk/
        wind_directions: []
      - name: Bridlington
        lat: 54.0948
        lng: -0.1744
        nickname: bridlington
        contact: ''
        wind_directions: []
      - name: Brighstone
        lat: 50.65594
        lng: -1.390431
        nickname: crowdecote
        contact: http://www.flywight.co.uk/
        wind_directions: []
      - name: Brigsteer
        lat: 54.2966
        lng: -2.7882
        nickname: brigsteer
        contact: ''
        wind_directions: []
      - name: Broadlee Bank (SE)
        lat: 53.372802
        lng: -1.834445
        nickname: broadleeSE
        contact: ''
        wind_directions: 90 - 225
      - name: Broughton Heights
        lat: 55.6616
        lng: -3.40851
        nickname: broughton
        contact: https://www.llsclub.co.uk/index.php/broughton-heights
        wind_directions: []
      - name: Brownhead
        lat: 55.4846
        lng: -5.324
        nickname: brownhead
        contact: ''
        wind_directions: []
      - name: Bruthach nan Uamh
        lat: 57.1658
        lng: -4.99337
        nickname: bruthach
        contact: ''
        wind_directions: []
      - name: Bryncaws
        lat: 51.711
        lng: -3.7907
        nickname: bryncaws
        contact: 'http://www.sewhgpgc.co.uk '
        wind_directions: []
      - name: Buckies - Finstry Hills (NE)
        lat: 56.0855
        lng: -4.17858
        nickname: buckies
        contact: https://www.llsclub.co.uk/index.php/stronend
        wind_directions: []
      - name: Buckies - Lees Hill (NW)
        lat: 56.0901
        lng: -4.15708
        nickname: buckies2
        contact: https://www.llsclub.co.uk/index.php/stronen
        wind_directions: []
      - name: Bunster Hill
        lat: 53.0607
        lng: -1.7907
        nickname: bunsterhill
        contact: http://www.tvhgc.co.uk/
        wind_directions: []
      - name: Burnbank Fell
        lat: 54.5792
        lng: -3.3734
        nickname: burnbank
        contact: ''
        wind_directions: []
      - name: Bushwhack Ridge
        lat: 56.2788
        lng: -4.2658
        nickname: bushwhack
        contact: ''
        wind_directions: []
      - name: Butser South
        lat: 50.970191
        lng: -0.982247
        nickname: butsers
        contact: http://skysurfingclub.co.uk/
        wind_directions: []
      - name: Butser West
        lat: 50.9767
        lng: -0.9876
        nickname: busterwest
        contact: http://www.dscondors.co.uk/
        wind_directions: []
      - name: Buttermere Moss
        lat: 54.5422
        lng: -3.25838
        nickname: bmm
        contact: ''
        wind_directions: []
      - name: Cacra
        lat: 55.4398
        lng: -3.07833
        nickname: cacra
        contact: ''
        wind_directions: []
      - name: Cairn O Mount
        lat: 56.9145
        lng: -2.576
        nickname: cairnomount
        contact: ''
        wind_directions: []
      - name: Cairngorm
        lat: 57.1225
        lng: -3.6462
        nickname: cairngorm
        contact: ''
        wind_directions: []
      - name: Cairnwell - Glenshee
        lat: 56.8788
        lng: -3.421
        nickname: cairnwell
        contact: ''
        wind_directions: []
      - name: Cam Lond Down
        lat: 51.6941
        lng: -2.3302
        nickname: camlongdown
        contact: http://www.avonhgpg.co.uk/sites/camlongd.php?s
        wind_directions: []
      - name: Campsies
        lat: 55.9942
        lng: -4.2153
        nickname: campsies
        contact: https://www.llsclub.co.uk/index.php/campsie-fells
        wind_directions: []
      - name: Captain Cooks Monument
        lat: 54.4854
        lng: -1.09536
        nickname: ccm
        contact: ''
        wind_directions: []
      - name: Carn Liath
        lat: 56.8018
        lng: -3.74977
        nickname: carnl
        contact: ''
        wind_directions: []
      - name: Carrock Fell
        lat: 54.6977
        lng: -3.01377
        nickname: carrock
        contact: ''
        wind_directions: []
      - name: Carsphairn
        lat: 55.22
        lng: -4.3324
        nickname: carsphairn
        contact: ''
        wind_directions: []
      - name: Cartridge Hill
        lat: 53.6734
        lng: -2.49807
        nickname: cartridgehill
        contact: ''
        wind_directions: []
      - name: Castle Morton
        lat: 52.0449
        lng: -2.34852
        nickname: castlemorton
        contact: http://www.malvern-hang.org.uk/
        wind_directions: []
      - name: Cats Tor
        lat: 53.2807
        lng: -2.009
        nickname: catstor
        contact: http://www.peaksoaring.co.uk
        wind_directions: 225 - 315
      - name: Cautley Crags
        lat: 54.3671
        lng: -2.49553
        nickname: cautleyc
        contact: ''
        wind_directions: []
      - name: Cautley Spout
        lat: 54.3742
        lng: -2.48325
        nickname: cautleys
        contact: ''
        wind_directions: []
      - name: Cayton Bay
        lat: 54.2418
        lng: -0.3569
        nickname: caytonbay
        contact: ''
        wind_directions: []
      - name: Chalton Down
        lat: 50.93002
        lng: -0.954247
        nickname: chalton
        contact: http://skysurfingclub.co.uk/
        wind_directions: []
      - name: Chelmorton
        lat: 53.234
        lng: -1.8283
        nickname: chelmorton
        contact: http://www.peaksoaring.co.uk
        wind_directions: []
      - name: Chillerton
        lat: 50.648295
        lng: -1.329234
        nickname: chillerton
        contact: http://www.flywight.co.uk/
        wind_directions: []
      - name: Chinnor
        lat: 51.699416
        lng: -0.890759
        nickname: chinnor
        contact: http://dunstablehpc.co.uk/cms/site-guides/chinnor/
        wind_directions: []
      - name: Claunie
        lat: 57.1631
        lng: -5.2058
        nickname: claunie
        contact: ''
        wind_directions: []
      - name: Clennel Hill
        lat: 55.3662
        lng: -2.1133
        nickname: clennel
        contact: ''
        wind_directions: []
      - name: Clough Head
        lat: 54.5972
        lng: -3.04115
        nickname: clough
        contact: ''
        wind_directions: []
      - name: Cocking Tor
        lat: 53.1454
        lng: -1.4862
        nickname: cockingtor
        contact: ''
        wind_directions: 30 - 125
      - name: Codden Hill
        lat: 51.0476
        lng: -4.02602
        nickname: codden
        contact: ''
        wind_directions: []
      - name: Coire a Chaorachain
        lat: 57.418
        lng: -5.6886
        nickname: coire
        contact: ''
        wind_directions: []
      - name: Coldsmouth Hill
        lat: 55.5473
        lng: -2.2279
        nickname: coldsmouth
        contact: ''
        wind_directions: []
      - name: Combe Gibbet
        lat: 51.3599
        lng: -1.47715
        nickname: combegibbet
        contact: http://www.tvhgc.co.uk/
        wind_directions: []
      - name: Coney s Castle
        lat: 50.7767
        lng: -2.8908
        nickname: coneyscastle
        contact: http://www.shgc.org.uk/
        wind_directions: []
      - name: Coniston Old Man
        lat: 54.3682
        lng: -3.12118
        nickname: com
        contact: ''
        wind_directions: []
      - name: Constitution Hill
        lat: 52.429
        lng: -4.079
        nickname: constitutionhill
        contact: http://www.flymidwales.org.uk
        wind_directions: []
      - name: Corn Ridge
        lat: 50.6865
        lng: -4.0499
        nickname: cormridge
        contact: ''
        wind_directions: []
      - name: Corndon
        lat: 52.5617
        lng: -3.0231
        nickname: corndon
        contact: http://www.flymidwales.org.uk
        wind_directions: []
      - name: Corton Denham
        lat: 51.0086
        lng: -51.0086
        nickname: cortondenham
        contact: ' '
        wind_directions: []
      - name: Countisbury
        lat: 51.2362
        lng: -3.79406
        nickname: countisbury
        contact: ''
        wind_directions: []
      - name: Cow Close
        lat: 54.155
        lng: -2.1718
        nickname: cow
        contact: ''
        wind_directions: []
      - name: Cowards Bowl
        lat: 51.1087
        lng: -2.2773
        nickname: cowards
        contact: http://www.avonhgpg.co.uk/
        wind_directions: []
      - name: Cowdown
        lat: 50.7965
        lng: -2.5136
        nickname: cowdown
        contact: http://www.shgc.org.uk/
        wind_directions: []
      - name: Cox Tor
        lat: 50.5685
        lng: -4.0761
        nickname: coxtor
        contact: ''
        wind_directions: []
      - name: Craig Huhlich
        lat: 56.5197
        lng: -3.79677
        nickname: craigh
        contact: ''
        wind_directions: []
      - name: Craig Leith (Alva)
        lat: 56.1621
        lng: -3.81856
        nickname: craigl
        contact: ''
        wind_directions: []
      - name: Craig Lethnot
        lat: 56.7771
        lng: -3.0448
        nickname: craiglethnot
        contact: https://www.ahpc.org.uk/sites/craig-lethnot/
        wind_directions: []
      - name: Craiglich
        lat: 57.1371
        lng: -2.77321
        nickname: craiglich
        contact: ''
        wind_directions: []
      - name: Creag Dubh
        lat: 57.0465
        lng: -4.18047
        nickname: creagdubh
        contact: ''
        wind_directions: []
      - name: Creag Meaghaidh
        lat: 56.9547
        lng: -4.53407
        nickname: creagme
        contact: ''
        wind_directions: []
      - name: Creag nan Clag
        lat: 57.3285
        lng: -4.3274
        nickname: creagnan
        contact: ''
        wind_directions: []
      - name: Crete Road
        lat: 51.1013
        lng: 1.1399
        nickname: creteroad
        contact: http://www.shgc.org.uk/
        wind_directions: []
      - name: Crimdon
        lat: 54.7276
        lng: -1.25077
        nickname: crimdon
        contact: ''
        wind_directions: []
      - name: Cringle Moor
        lat: 54.4225
        lng: -1.1766
        nickname: cringlemoor
        contact: ''
        wind_directions: []
      - name: Crook Peak
        lat: 51.2957
        lng: -2.87929
        nickname: crookpeak
        contact: http://www.dscondors.co.uk/
        wind_directions: []
      - name: Cross Fell
        lat: 54.7018
        lng: -2.5259
        nickname: crossf
        contact: ''
        wind_directions: []
      - name: Crowdecote
        lat: 53.1802
        lng: -1.83687
        nickname: crowdecote
        contact: http://www.peaksoaring.co.uk
        wind_directions: []
      - name: Curbar Edge
        lat: 53.2695
        lng: -1.61092
        nickname: curbaredge
        contact: www.derbyshiresoaringclub.org.uk
        wind_directions: 210 - 240
      - name: Dale Head
        lat: 53.3442
        lng: -1.8697
        nickname: dalehead
        contact: www.derbyshiresoaringclub.org.uk
        wind_directions: 30 - 120
      - name: Devils Dyke
        lat: 50.8857
        lng: -0.213
        nickname: devils
        contact: http://www.shgc.org.uk/
        wind_directions: []
      - name: Disgwylfa Fawr
        lat: 52.4428
        lng: -3.8606
        nickname: disgwylfafawr
        contact: http://www.flymidwales.org.uk
        wind_directions: []
      - name: Ditchling Beacon
        lat: 50.9033
        lng: -0.1097
        nickname: ditchling
        contact: http://www.shgc.org.uk/
        wind_directions: []
      - name: Dizzard
        lat: 50.7648
        lng: -4.58962
        nickname: dizzard
        contact: ''
        wind_directions: []
      - name: Dodd Fell
        lat: 54.2516
        lng: -2.26247
        nickname: doddf
        contact: ''
        wind_directions: []
      - name: Double Craigs - Stronend (W)
        lat: 56.0732
        lng: -4.20193
        nickname: doublecraigs
        contact: https://www.llsclub.co.uk/index.php/stronend
        wind_directions: []
      - name: Draycott
        lat: 51.2545
        lng: -2.72085
        nickname: draycott
        contact: ' http://www.avonhgpg.co.uk/ '
        wind_directions: []
      - name: Drumadoon
        lat: 55.5133
        lng: -5.3475
        nickname: drumadoon
        contact: ''
        wind_directions: []
      - name: Dumyat
        lat: 56.1553
        lng: -3.87382
        nickname: dumyat
        contact: https://www.llsclub.co.uk/index.php/dumyat
        wind_directions: []
      - name: Dungavel Hill
        lat: 55.5569
        lng: -3.6811
        nickname: dungavel
        contact: https://www.llsclub.co.uk/index.php/dungavel
        wind_directions: []
      - name: Dunstable
        lat: 51.873485
        lng: -0.537801
        nickname: dunstable
        contact: https://dunstablehpc.com/
        wind_directions: []
      - name: Easington
        lat: 54.7861
        lng: -1.3095
        nickname: easington
        contact: ''
        wind_directions: []
      - name: East Hill
        lat: 50.732
        lng: -3.2499
        nickname: easthill
        contact: http://www.shgc.org.uk/
        wind_directions: []
      - name: East Hill (Northumberland)
        lat: 55.4406
        lng: -1.94941
        nickname: easthn
        contact: ''
        wind_directions: []
      - name: East Lomond
        lat: 56.2423
        lng: -3.2211
        nickname: eastl
        contact: ''
        wind_directions: []
      - name: Ebbw Vale
        lat: 51.7465
        lng: -3.20364
        nickname: ebbw
        contact: http://www.swwsc.co.uk
        wind_directions: []
      - name: Edenfield
        lat: 53.6564
        lng: -2.27033
        nickname: edenfield
        contact: ''
        wind_directions: []
      - name: Edge Top
        lat: 53.1911
        lng: -1.92662
        nickname: edgetop
        contact: http://www.peaksoaring.co.uk
        wind_directions: []
      - name: Elan Valley
        lat: 52.33393
        lng: -3.60827
        nickname: elanvalley
        contact: https://www.flymidwales.org.uk/
        wind_directions: []
      - name: Elidir Fach
        lat: 53.1277
        lng: -4.1022
        nickname: elidirfach
        contact: http://www.tvhgc.co.uk/
        wind_directions: []
      - name: Ellerside
        lat: 54.2176
        lng: -2.98841
        nickname: ellerside
        contact: ''
        wind_directions: []
      - name: Eyam Edge
        lat: 53.2962
        lng: -1.6968
        nickname: eyamedge
        contact: www.derbyshiresoaringclub.org.uk
        wind_directions: 165 - 245
      - name: Eyam Edge
        lat: 53.2962
        lng: -1.6968
        nickname: eyamedge
        contact: www.derbyshiresoaringclub.org.uk
        wind_directions: []
      - name: Eype
        lat: 50.716
        lng: -2.779
        nickname: eype
        contact: http://www.shgc.org.uk/
        wind_directions: []
      - name: Fairbourne
        lat: 52.6845
        lng: -4.0522
        nickname: fairbourne
        contact: http://www.flymidwales.org.uk
        wind_directions: []
      - name: Fan Gyhirych
        lat: 51.8603
        lng: -3.627
        nickname: gyhirych
        contact: http://www.swwsc.co.uk
        wind_directions: []
      - name: Farleton Knott
        lat: 54.2196
        lng: -2.71017
        nickname: farleton
        contact: ''
        wind_directions: []
      - name: Farmers
        lat: 52.1125
        lng: -3.9729
        nickname: farmers
        contact: 'http://www.sewhgpgc.co.uk '
        wind_directions: []
      - name: Farway
        lat: 50.7403
        lng: -3.1438
        nickname: farway
        contact: http://www.shgc.org.uk/
        wind_directions: []
      - name: Fionn Bheinn
        lat: 57.6109
        lng: -5.1037
        nickname: fionn
        contact: ''
        wind_directions: []
      - name: Firle
        lat: 50.8338
        lng: 0.0844
        nickname: firle
        contact: http://www.shgc.org.uk/
        wind_directions: []
      - name: Ford Farm
        lat: 51.1463
        lng: -2.90076
        nickname: fordfarm
        contact: http://www.dscondors.co.uk/
        wind_directions: []
      - name: Fourman Hill
        lat: 57.5004
        lng: -2.71747
        nickname: fourman
        contact: ''
        wind_directions: []
      - name: Fraserburgh Beach
        lat: 57.68
        lng: -1.9926
        nickname: fraserburgh
        contact: ''
        wind_directions: []
      - name: Frocester
        lat: 51.7096
        lng: -2.29962
        nickname: frocester
        contact: ' http://www.avonhgpg.co.uk/ '
        wind_directions: []
      - name: Gargunnock
        lat: 56.1114
        lng: -4.0763
        nickname: gargu
        contact: ''
        wind_directions: []
      - name: Garth Hill
        lat: 51.5443
        lng: -3.2805
        nickname: garthhill
        contact: http://www.shgc.org.uk/
        wind_directions: []
      - name: Garway Hill
        lat: 51.921816
        lng: -2.822012
        nickname: garway
        contact: ' '
        wind_directions: []
      - name: Glen Fruin
        lat: 56.0672
        lng: -4.747
        nickname: glenfruin
        contact: ''
        wind_directions: []
      - name: Glyderau
        lat: 53.0905
        lng: -3.9991
        nickname: glyderau
        contact: http://www.tvhgc.co.uk/
        wind_directions: []
      - name: Goat Fell
        lat: 55.6259
        lng: -5.1917
        nickname: goatfell
        contact: ''
        wind_directions: []
      - name: Golden Ball
        lat: 51.373473
        lng: -1.81782
        nickname: goldenball
        contact: http://www.tvhgc.co.uk/
        wind_directions: []
      - name: Gragareth
        lat: 54.203
        lng: -2.47857
        nickname: grag
        contact: ''
        wind_directions: []
      - name: Great Coum
        lat: 54.2439
        lng: -2.45699
        nickname: gc
        contact: ''
        wind_directions: []
      - name: Great Langdale
        lat: 54.4519
        lng: -3.10318
        nickname: gld
        contact: ''
        wind_directions: []
      - name: Green Dragons
        lat: 51.2869
        lng: -0.0215
        nickname: greendragons
        contact: http://www.shgc.org.uk/
        wind_directions: []
      - name: Grike
        lat: 54.5215
        lng: -3.39978
        nickname: grike
        contact: ''
        wind_directions: []
      - name: Gyrn Moelfre
        lat: 52.851
        lng: -3.2078
        nickname: gyrnmoelfre
        contact: ''
        wind_directions: []
      - name: Haig Pit
        lat: 54.5418
        lng: -3.60287
        nickname: haig
        contact: ''
        wind_directions: []
      - name: Ham Hill
        lat: 50.9522
        lng: -2.74322
        nickname: hamhill
        contact: http://www.dscondors.co.uk/
        wind_directions: []
      - name: Hambledon Hill
        lat: 50.9144
        lng: -2.2205
        nickname: hambledonhill
        contact: http://www.shgc.org.uk/
        wind_directions: []
      - name: Hameldon Hill
        lat: 53.7586
        lng: -2.29429
        nickname: hameldon
        contact: ''
        wind_directions: []
      - name: Haresfield
        lat: 51.7792
        lng: -2.256
        nickname: haresfield
        contact: ' http://www.avonhgpg.co.uk/ '
        wind_directions: []
      - name: Harting Down
        lat: 50.959399
        lng: -0.870143
        nickname: harting
        contact: http://skysurfingclub.co.uk/
        wind_directions: []
      - name: Hawksick
        lat: 54.1457
        lng: -2.09523
        nickname: hawksick
        contact: ''
        wind_directions: []
      - name: Hay Bluff
        lat: 52.0168
        lng: -3.10905
        nickname: haybluff
        contact: http://www.sewhgpgc.co.uk
        wind_directions: []
      - name: Heol Senny
        lat: 51.8883
        lng: -3.5814
        nickname: heolsenny
        contact: http://www.swwsc.co.uk
        wind_directions: []
      - name: Hepburn Wood
        lat: 55.5009
        lng: -1.8767
        nickname: hepburn
        contact: ''
        wind_directions: []
      - name: High Edge
        lat: 53.2171
        lng: -1.90711
        nickname: highedge
        contact: http://www.peaksoaring.co.uk
        wind_directions: []
      - name: High Wheeldon
        lat: 53.191
        lng: -1.8496
        nickname: highwheeldon
        contact: http://www.peaksoaring.co.uk
        wind_directions: []
      - name: Hill Farm
        lat: 52.6947
        lng: 0.8138
        nickname: farm
        contact: http://www.shgc.org.uk/
        wind_directions: []
      - name: Hillend
        lat: 55.8821
        lng: -3.2142
        nickname: hillend
        contact: https://www.llsclub.co.uk/index.php/hillend
        wind_directions: []
      - name: Holmbeck
        lat: 51.910066
        lng: -0.729213
        nickname: holmbeck
        contact: http://dunstablehpc.co.uk/
        wind_directions: []
      - name: Holme Moss
        lat: 53.5318
        lng: -1.84987
        nickname: holmemoss
        contact: ''
        wind_directions: []
      - name: Horcum
        lat: 54.3345
        lng: -0.701067
        nickname: horcum
        contact: ''
        wind_directions: []
      - name: Horden
        lat: 54.7724
        lng: -1.3065
        nickname: horden
        contact: ''
        wind_directions: []
      - name: Hownam Law
        lat: 55.4888
        lng: -2.32372
        nickname: hownam
        contact: ''
        wind_directions: []
      - name: Humbleton Hill
        lat: 55.5487
        lng: -2.05052
        nickname: humbleton
        contact: ''
        wind_directions: []
      - name: Humphrey Head
        lat: 54.1564
        lng: -2.93478
        nickname: humphrey
        contact: ''
        wind_directions: []
      - name: Hundred House
        lat: 52.162
        lng: -3.3425
        nickname: hundredhouse
        contact: http://www.joomla.malvern-hang.org.uk/index.php?opt
        wind_directions: []
      - name: Ingleborough
        lat: 54.1668
        lng: -2.40017
        nickname: ingle
        contact: ''
        wind_directions: []
      - name: Jenkin
        lat: 54.6317
        lng: -3.12252
        nickname: jenkin
        contact: ''
        wind_directions: []
      - name: Johnny Barns
        lat: 54.2313
        lng: -2.55355
        nickname: johnnyb
        contact: ''
        wind_directions: []
      - name: Kaim Hill - Fairlie
        lat: 55.7433
        lng: -4.833
        nickname: kaimh
        contact: https://www.llsclub.co.uk/index.php/fairlie
        wind_directions: []
      - name: Kerloch
        lat: 56.9813
        lng: -2.50015
        nickname: kerloch
        contact: ''
        wind_directions: []
      - name: Kimmeridge
        lat: 50.6151
        lng: -2.1059
        nickname: kimmeridge
        contact: http://www.shgc.org.uk/
        wind_directions: []
      - name: King Tor
        lat: 50.6192
        lng: -3.82517
        nickname: kingtor
        contact: ''
        wind_directions: []
      - name: Kintail
        lat: 57.2226
        lng: -5.4078
        nickname: kintail
        contact: ''
        wind_directions: []
      - name: Knock Hill
        lat: 57.5849
        lng: -2.77517
        nickname: knockhill
        contact: ''
        wind_directions: []
      - name: Knockfarrell
        lat: 57.591
        lng: -4.5047
        nickname: knockfarrell
        contact: ''
        wind_directions: []
      - name: Lansdown
        lat: 51.4382
        lng: -2.4012
        nickname: lansdown
        contact: ''
        wind_directions: []
      - name: Latrigg
        lat: 54.6125
        lng: -3.1215
        nickname: latrigg
        contact: ''
        wind_directions: []
      - name: Lawley
        lat: 52.5823
        lng: -2.7369
        nickname: lawley
        contact: ''
        wind_directions: []
      - name: Leadlich
        lat: 57.1343
        lng: -2.79133
        nickname: leadlich
        contact: ''
        wind_directions: []
      - name: Leckhampton Hill
        lat: 51.865
        lng: -2.06648
        nickname: leckhampton
        contact: http://www.malvern-hang.org.uk/leckhamp.shtml
        wind_directions: []
      - name: Ledmore
        lat: 58.0704
        lng: -4.9637
        nickname: ledmore
        contact: ''
        wind_directions: []
      - name: Liathach
        lat: 57.5583
        lng: -5.4956
        nickname: liathach
        contact: ''
        wind_directions: []
      - name: Liddington
        lat: 51.5163
        lng: -1.7002
        nickname: liddington
        contact: http://www.tvhgc.co.uk/
        wind_directions: []
      - name: Limerstone
        lat: 50.651125
        lng: -1.381977
        nickname: limerstone
        contact: http://www.flywight.co.uk/
        wind_directions: []
      - name: Little Wyvis
        lat: 57.6404
        lng: -4.6337
        nickname: littlewyvis
        contact: ''
        wind_directions: []
      - name: Llanddewi Brefi
        lat: 52.1671
        lng: -3.9708
        nickname: llandewi
        contact: 'http://www.sewhgpgc.co.uk '
        wind_directions: []
      - name: Llandinam
        lat: 52.476
        lng: -3.4211
        nickname: llandinam
        contact: ''
        wind_directions: 245 - 315
      - name: Llangolen
        lat: 52.9556
        lng: -3.13631
        nickname: llangollen
        contact: http://www.tvhgc.co.uk/
        wind_directions: []
      - name: Llangorse
        lat: 51.9371
        lng: -3.2229
        nickname: llangorse
        contact: ''
        wind_directions: []
      - name: Llantysilio Mountain
        lat: 52.9974
        lng: -3.2624
        nickname: llantysiliomountain
        contact: http://www.tvhgc.co.uk/
        wind_directions: []
      - name: Lletyn Gors
        lat: 51.9197
        lng: -4.1191
        nickname: lletyngors
        contact: 'http://www.sewhgpgc.co.uk '
        wind_directions: []
      - name: Loch Walton
        lat: 56.0616
        lng: -4.1407
        nickname: lochw
        contact: ''
        wind_directions: []
      - name: Long Mountain
        lat: 52.6764
        lng: -3.06218
        nickname: longmountain
        contact: http://www.flymidwales.org.uk
        wind_directions: []
      - name: Long Mynd
        lat: 52.522
        lng: -2.88088
        nickname: longmynd
        contact: http://www.longmynd.org/
        wind_directions: 225 - 330
      - name: Long Mynd South
        lat: 52.4951
        lng: -2.89617
        nickname: longmyndsouth
        contact: http://www.longmynd.org/
        wind_directions: []
      - name: Longridge fell
        lat: 53.8659
        lng: -2.5138
        nickname: longridge
        contact: ''
        wind_directions: []
      - name: Longstone Edge
        lat: 53.2545
        lng: -1.6961
        nickname: longstoneedge
        contact: www.derbyshiresoaringclub.org.uk
        wind_directions: []
      - name: Lords Seat
        lat: 53.3479
        lng: -1.8197
        nickname: lordsseat
        contact: www.derbyshiresoaringclub.org.uk
        wind_directions: 315 - 45
      - name: Lossburn Resevoir
        lat: 56.1749
        lng: -3.89259
        nickname: lossburn
        contact: ''
        wind_directions: []
      - name: Luss
        lat: 56.1141
        lng: -4.6548
        nickname: luss
        contact: ''
        wind_directions: []
      - name: Maes Knoll
        lat: 51.3921
        lng: -2.5747
        nickname: maesKnoll
        contact: ''
        wind_directions: []
      - name: Magic
        lat: 51.8876
        lng: -3.13497
        nickname: magic
        contact: ''
        wind_directions: []
      - name: Mam Tor(E)
        lat: 53.3496
        lng: -1.8099
        nickname: mamtor
        contact: www.derbyshiresoaringclub.org.uk
        wind_directions: 45 - 135
      - name: Mam Tor(NW)
        lat: 53.3496
        lng: -1.8099
        nickname: mamtor
        contact: www.derbyshiresoaringclub.org.uk
        wind_directions: 290 - 335
      - name: Mappleton
        lat: 53.8801
        lng: -0.136483
        nickname: mappleton
        contact: ''
        wind_directions: []
      - name: Marske
        lat: 54.5958
        lng: -1.0113
        nickname: marske
        contact: ''
        wind_directions: []
      - name: Meall a Bhainne
        lat: 57.7332
        lng: -5.0422
        nickname: meallabhainne
        contact: ''
        wind_directions: []
      - name: Meall a Bhuiridh
        lat: 56.6094
        lng: -4.83648
        nickname: mab
        contact: ''
        wind_directions: []
      - name: Meall Chuaich
        lat: 56.9618
        lng: -4.11232
        nickname: meallchuaich
        contact: ''
        wind_directions: []
      - name: Meall Gorm
        lat: 57.4025
        lng: -5.7018
        nickname: meallgorm
        contact: ''
        wind_directions: []
      - name: Meall nan Tarmachan
        lat: 56.516
        lng: -4.29342
        nickname: mnt
        contact: ''
        wind_directions: []
      - name: Meall Reamhar - Corrymucklock
        lat: 56.4754
        lng: -3.81254
        nickname: meallr
        contact: ''
        wind_directions: []
      - name: Meall Reamhar - Sma Glen
        lat: 56.4727
        lng: -3.81728
        nickname: meallr2
        contact: ''
        wind_directions: []
      - name: Mercury
        lat: 50.974227
        lng: -1.038676
        nickname: mercury
        contact: http://skysurfingclub.co.uk/
        wind_directions: []
      - name: Mere
        lat: 51.10644
        lng: -2.26991
        nickname: mere
        contact: Avon club
        wind_directions: []
      - name: Merthyr Common
        lat: 51.7235
        lng: -3.33622
        nickname: merthyr
        contact: 'http://www.sewhgpgc.co.uk '
        wind_directions: []
      - name: Milk Hill
        lat: 51.379
        lng: -1.85631
        nickname: milkhill
        contact: http://www.tvhgc.co.uk/
        wind_directions: []
      - name: Milk Hill White Horse
        lat: 51.372764
        lng: -1.855164
        nickname: mhwh
        contact: 'http://www.tvhgc.co.uk/ '
        wind_directions: []
      - name: Milky
        lat: 51.375723
        lng: -1.745465
        nickname: milky
        contact: http://www.tvhgc.co.uk/
        wind_directions: []
      - name: Millington
        lat: 53.9523
        lng: -0.7263
        nickname: millington
        contact: ''
        wind_directions: []
      - name: Minster
        lat: 51.4226
        lng: 0.8497
        nickname: minster
        contact: http://www.shgc.org.uk/
        wind_directions: []
      - name: Model Ridge
        lat: 54.4223
        lng: -1.1924
        nickname: modelridge
        contact: ''
        wind_directions: []
      - name: Moel Berfedd
        lat: 53.082
        lng: -4.0117
        nickname: moelberfedd
        contact: http://www.tvhgc.co.uk/
        wind_directions: []
      - name: Moel Eilio
        lat: 53.1091
        lng: -4.1405
        nickname: moeleilio
        contact: http://www.tvhgc.co.uk/
        wind_directions: []
      - name: Moel Famau
        lat: 53.1385
        lng: -3.2596
        nickname: moelfamau
        contact: http://www.tvhgc.co.uk/
        wind_directions: []
      - name: Moneylaws
        lat: 55.6084
        lng: -2.20797
        nickname: moneylaws
        contact: ''
        wind_directions: []
      - name: Monks Down
        lat: 50.9862
        lng: -2.0869
        nickname: monksdown
        contact: http://www.wessexhgpg.org.uk
        wind_directions: []
      - name: Moorfoots
        lat: 55.7776
        lng: -3.0364
        nickname: moorfoots
        contact: https://www.llsclub.co.uk/index.php/moorfoots
        wind_directions: []
      - name: Morrone
        lat: 56.9809
        lng: -3.42895
        nickname: morrone
        contact: ''
        wind_directions: []
      - name: Mount Benger
        lat: 55.5305
        lng: -3.0924
        nickname: ''
        contact: benger
        wind_directions: 210 - 295
      - name: Mount Caburn
        lat: 50.8615
        lng: 0.0509
        nickname: caburn
        contact: http://www.shgc.org.uk/
        wind_directions: []
      - name: Much Marcle
        lat: 51.9923
        lng: -2.54024
        nickname: muchmarcle
        contact: http://www.malvern-hang.org.uk/
        wind_directions: []
      - name: Mynydd Meio
        lat: 51.5866
        lng: -3.28024
        nickname: mynydd
        contact: 'http://www.sewhgpgc.co.uk '
        wind_directions: []
      - name: Myreton
        lat: 56.1605
        lng: -3.83953
        nickname: myreton
        contact: https://www.llsclub.co.uk/index.php/myreton
        wind_directions: []
      - name: Na Cnapanan
        lat: 56.9658
        lng: -4.50786
        nickname: nacnap
        contact: ''
        wind_directions: []
      - name: Nantymoel
        lat: 51.6373
        lng: -3.5321
        nickname: nantymoel
        contact: ''
        wind_directions: []
      - name: Nappa Scar
        lat: 54.3281
        lng: -2.0612
        nickname: nappa
        contact: ''
        wind_directions: []
      - name: Nont Sarahs
        lat: 53.6178
        lng: -1.97883
        nickname: nonts
        contact: ''
        wind_directions: []
      - name: North Hill
        lat: 51.2192
        lng: -3.50079
        nickname: northhill
        contact: ''
        wind_directions: []
      - name: North Table
        lat: 57.4027
        lng: -6.6278
        nickname: northtable
        contact: ''
        wind_directions: []
      - name: Olivers Castle
        lat: 51.3809
        lng: -1.99856
        nickname: oliverscastle
        contact: http://www.tvhgc.co.uk/
        wind_directions: []
      - name: Pandy
        lat: 51.905
        lng: -2.99273
        nickname: pandy
        contact: http://www.sewhgpgc.co.uk
        wind_directions: []
      - name: Parlick
        lat: 53.9005
        lng: -2.6161
        nickname: parlick
        contact: ''
        wind_directions: 67 - 292
      - name: Pauls Grove
        lat: 51.5074
        lng: -1.1048
        nickname: grove
        contact: http://www.shgc.org.uk/
        wind_directions: []
      - name: Peak Hill
        lat: 50.677
        lng: -3.2626
        nickname: peakhill
        contact: http://www.shgc.org.uk/
        wind_directions: []
      - name: Pen Dias
        lat: 52.4018
        lng: -4.0826
        nickname: pendias
        contact: http://www.flymidwales.org.uk
        wind_directions: []
      - name: Pen-y-Ghent (SE)
        lat: 54.1547
        lng: -2.24821
        nickname: pygse
        contact: ''
        wind_directions: []
      - name: Pen-y-ghent (W)
        lat: 54.1569
        lng: -2.25177
        nickname: pygw
        contact: ''
        wind_directions: []
      - name: Pendle
        lat: 53.86
        lng: -2.34062
        nickname: pendle
        contact: ''
        wind_directions: []
      - name: Penycloddiau East
        lat: 53.2049
        lng: -3.3085
        nickname: penycloddiaueast
        contact: http://www.tvhgc.co.uk/
        wind_directions: []
      - name: Perran Sands
        lat: 50.3612
        lng: -5.1485
        nickname: perransands
        contact: ''
        wind_directions: []
      - name: Pinnacle Hill
        lat: 52.0767
        lng: -2.3397
        nickname: pinnacle
        contact: http://www.malvern-hang.org.uk/
        wind_directions: []
      - name: Polhawn Fields
        lat: 50.3264
        lng: -4.21721
        nickname: polhawn
        contact: ''
        wind_directions: []
      - name: Pontlottyn
        lat: 51.7376
        lng: -3.28161
        nickname: pontlottyn
        contact: http://www.swwsc.co.uk
        wind_directions: []
      - name: Porlock Hill
        lat: 51.205
        lng: -3.62631
        nickname: porlock
        contact: ''
        wind_directions: []
      - name: Pressendye
        lat: 57.1681
        lng: -2.84497
        nickname: pressendye
        contact: ''
        wind_directions: []
      - name: Pule
        lat: 53.5934
        lng: -1.9528
        nickname: pule
        contact: ''
        wind_directions: []
      - name: Putsborough
        lat: 51.14321
        lng: -4.22571
        nickname: putsborough
        contact: ''
        wind_directions: []
      - name: Quinag
        lat: 58.1987
        lng: -5.0234
        nickname: quinag
        contact: ''
        wind_directions: []
      - name: Raddon Hill
        lat: 50.8173
        lng: -3.56311
        nickname: raddon
        contact: ''
        wind_directions: []
      - name: Rhigos
        lat: 51.7163
        lng: -3.55605
        nickname: rhigos
        contact: 'http://www.sewhgpgc.co.uk '
        wind_directions: []
      - name: Rhossili
        lat: 51.5746
        lng: -4.2827
        nickname: rhossili
        contact: http://www.swwsc.co.uk/
        wind_directions: []
      - name: Rifle Range
        lat: 51.1063
        lng: -2.2727
        nickname: riflerange
        contact: ' '
        wind_directions: []
      - name: Ringstead
        lat: 50.6399
        lng: -2.3424
        nickname: ringstead
        contact: http://www.shgc.org.uk/
        wind_directions: []
      - name: Ross
        lat: 55.5267
        lng: -5.1669
        nickname: ross
        contact: ''
        wind_directions: []
      - name: Rushup
        lat: 53.3463
        lng: -1.83262
        nickname: rushup
        contact: www.derbyshiresoaringclub.org.uk
        wind_directions: []
      - name: Rutland
        lat: 52.62871
        lng: -0.60923
        nickname: rutland
        contact: rutlandairsport.wordpress.com
        wind_directions: 1 - 360
      - name: Rybury
        lat: 51.3715
        lng: -1.8807
        nickname: rybury
        contact: http://www.tvhgc.co.uk/
        wind_directions: []
      - name: Sail Mhor
        lat: 57.8461
        lng: -5.2989
        nickname: sailmhor
        contact: ''
        wind_directions: []
      - name: Saltburn
        lat: 54.5847
        lng: -0.9571
        nickname: saltburn
        contact: ''
        wind_directions: []
      - name: Sandy Bay
        lat: 50.6166
        lng: -3.3571
        nickname: bay
        contact: http://www.shgc.org.uk/
        wind_directions: []
      - name: Sandymouth Bay
        lat: 50.865
        lng: -4.5573
        nickname: sandymouth
        contact: ''
        wind_directions: []
      - name: Scar Hill
        lat: 57.1891
        lng: -2.85786
        nickname: scarhill
        contact: ''
        wind_directions: []
      - name: Seaham
        lat: 54.8504
        lng: -1.343
        nickname: seaham
        contact: ''
        wind_directions: []
      - name: Selsley Common
        lat: 51.7268
        lng: -2.25089
        nickname: selsley
        contact: ' http://www.avonhgpg.co.uk/ '
        wind_directions: []
      - name: Selworthy Sands
        lat: 51.2292
        lng: -3.56843
        nickname: selworthysands
        contact: ''
        wind_directions: []
      - name: Semer Water
        lat: 54.2856
        lng: -2.14594
        nickname: semer
        contact: ''
        wind_directions: []
      - name: Sgurr Alasdair
        lat: 57.1964
        lng: -6.231
        nickname: sgurra
        contact: ''
        wind_directions: []
      - name: Sharpenhoe
        lat: 51.958196
        lng: -0.445663
        nickname: sharpenhoe
        contact: http://dunstablehpc.co.uk/
        wind_directions: []
      - name: Shining Tor
        lat: 53.258
        lng: -2.0095
        nickname: shiningtor
        contact: http://www.peaksoaring.co.uk
        wind_directions: []
      - name: Sourton Tor
        lat: 50.691
        lng: -4.06643
        nickname: sourton
        contact: ''
        wind_directions: []
      - name: Souther Fell
        lat: 54.6564
        lng: -2.99679
        nickname: souther
        contact: ''
        wind_directions: []
      - name: St Bees
        lat: 54.4886
        lng: -3.60238
        nickname: stbees
        contact: ''
        wind_directions: []
      - name: St Cats
        lat: 50.596003
        lng: -1.306157
        nickname: stcats
        contact: http://www.flywight.co.uk/
        wind_directions: []
      - name: St Cyrus
        lat: 56.7737
        lng: -2.40494
        nickname: stcyrus
        contact: ''
        wind_directions: []
      - name: St. Agnes
        lat: 50.3183
        lng: -5.2289
        nickname: stagnes
        contact: ''
        wind_directions: []
      - name: Stags Fell
        lat: 54.3251
        lng: -2.19529
        nickname: stags
        contact: ''
        wind_directions: []
      - name: Stanage
        lat: 53.3454
        lng: -1.6299
        nickname: stanage
        contact: www.derbyshiresoaringclub.org.uk
        wind_directions: 210 - 260
      - name: Streatley Common
        lat: 51.5173
        lng: -1.1502
        nickname: common
        contact: http://www.shgc.org.uk/
        wind_directions: []
      - name: Streatley North
        lat: 51.5223
        lng: -1.1879
        nickname: snorth
        contact: http://www.shgc.org.uk/
        wind_directions: []
      - name: Strete
        lat: 50.2991
        lng: -3.63874
        nickname: strete
        contact: ''
        wind_directions: []
      - name: Stronend (NW)
        lat: 56.0785
        lng: -4.2036
        nickname: stronendnw
        contact: https://www.llsclub.co.uk/index.php/stronend
        wind_directions: []
      - name: Struddick Farm
        lat: 50.3658
        lng: -4.40468
        nickname: struddick
        contact: ''
        wind_directions: []
      - name: Sugar Hill
        lat: 51.5044
        lng: -1.65663
        nickname: sugarhill
        contact: http://www.tvhgc.co.uk/
        wind_directions: []
      - name: Suidhe Fhearghas
        lat: 55.66
        lng: -5.1991
        nickname: suidhe
        contact: ''
        wind_directions: []
      - name: Sutton Bank
        lat: 54.2426
        lng: -1.21741
        nickname: suttonb
        contact: ''
        wind_directions: []
      - name: Swarth Fell
        lat: 54.3641
        lng: -2.37605
        nickname: swarth
        contact: ''
        wind_directions: []
      - name: Swinside
        lat: 54.6104
        lng: -3.28268
        nickname: swinside
        contact: ''
        wind_directions: []
      - name: Swyre Hill
        lat: 50.687
        lng: -2.6669
        nickname: swyre
        contact: http://www.shgc.org.uk/
        wind_directions: []
      - name: Tailbridge
        lat: 54.4402
        lng: -2.3025
        nickname: tailbridge
        contact: ''
        wind_directions: []
      - name: Talisker plage
        lat: 57.295
        lng: -6.43422
        nickname: talisker
        contact: ''
        wind_directions: []
      - name: Talybont
        lat: 51.8564
        lng: -3.3755
        nickname: talybont
        contact: http://www.avonhgpg.co.uk/sites/talybont.php
        wind_directions: []
      - name: Tan Hill
        lat: 51.38108
        lng: -1.878631
        nickname: tanhill
        contact: http://www.tvhgc.co.uk/
        wind_directions: []
      - name: Tap o Noth
        lat: 57.3505
        lng: -2.85789
        nickname: taponoth
        contact: https://www.ahpc.org.uk/sites/tap-o-noth/
        wind_directions: []
      - name: Telegraph Hill
        lat: 50.8424
        lng: -2.5135
        nickname: telegraph
        contact: http://www.shgc.org.uk/
        wind_directions: []
      - name: Telegraph Hill
        lat: 50.6405
        lng: -3.53602
        nickname: telegraphhill
        contact: ''
        wind_directions: []
      - name: The Blorenge
        lat: 51.8037
        lng: -3.05287
        nickname: blorenge
        contact: http://www.sewhgpgc.co.uk
        wind_directions: []
      - name: The Quirang - Totternish
        lat: 57.6293
        lng: -6.28989
        nickname: quirang
        contact: ''
        wind_directions: []
      - name: The Roaches
        lat: 53.165
        lng: -1.99948
        nickname: theroaches
        contact: http://www.tvhgc.co.uk/
        wind_directions: []
      - name: The Wrekin
        lat: 52.67
        lng: -2.55383
        nickname: thewrekin
        contact: ''
        wind_directions: []
      - name: Thundergay
        lat: 55.6542
        lng: -5.3408
        nickname: drumadoon
        contact: ''
        wind_directions: []
      - name: Thurnham
        lat: 51.2935
        lng: 0.5881
        nickname: thurnham
        contact: http://www.shgc.org.uk/
        wind_directions: []
      - name: Tinto (Alt North)
        lat: 55.6036
        lng: -3.6584
        nickname: tintona
        contact: ''
        wind_directions: []
      - name: Tinto (North)
        lat: 55.5922
        lng: -3.70758
        nickname: tinton
        contact: https://www.llsclub.co.uk/index.php/tinto-north
        wind_directions: []
      - name: Tinto (South)
        lat: 55.5905
        lng: -3.69956
        nickname: tintos
        contact: https://www.llsclub.co.uk/index.php/tinto-south
        wind_directions: []
      - name: Tom na Gruagaich
        lat: 57.5776
        lng: -5.5863
        nickname: tomna
        contact: ''
        wind_directions: []
      - name: Tops of Fichell
        lat: 56.8044
        lng: -3.01117
        nickname: tops
        contact: https://www.ahpc.org.uk/sites/tops-of-fichell/
        wind_directions: []
      - name: Torr - Lochranza
        lat: 55.6954
        lng: -5.264
        nickname: torrl
        contact: ''
        wind_directions: []
      - name: Treak Cliff
        lat: 53.344
        lng: -1.79897
        nickname: treakcliff
        contact: www.derbyshiresoaringclub.org.uk
        wind_directions: 40 - 135
      - name: Trentishoe Fields
        lat: 51.217536
        lng: -3.954591
        nickname: trentishoe
        contact: ''
        wind_directions: []
      - name: Triscombe
        lat: 51.1103
        lng: -3.20294
        nickname: triscombe
        contact: http://www.dscondors.co.uk/
        wind_directions: []
      - name: Trout Beck
        lat: 54.421
        lng: -2.89074
        nickname: troutb
        contact: ''
        wind_directions: []
      - name: Truleigh Hill
        lat: 50.885
        lng: -0.26
        nickname: truleigh
        contact: http://www.shgc.org.uk/
        wind_directions: []
      - name: Ubley
        lat: 51.3124
        lng: -2.67441
        nickname: ubley
        contact: ' http://www.avonhgpg.co.uk/ '
        wind_directions: []
      - name: Uffington
        lat: 51.5775
        lng: -1.56732
        nickname: uffington
        contact: ''
        wind_directions: []
      - name: Ullock Pike
        lat: 54.6647
        lng: -3.18022
        nickname: ullock
        contact: ''
        wind_directions: []
      - name: Walla Crag
        lat: 54.5852
        lng: -3.11687
        nickname: walla
        contact: ''
        wind_directions: []
      - name: Warren Cottage
        lat: 50.3016
        lng: -4.0604
        nickname: cottage
        contact: http://www.shgc.org.uk/
        wind_directions: []
      - name: Warren Cottage
        lat: 50.3016
        lng: -4.06038
        nickname: warrenc
        contact: ''
        wind_directions: []
      - name: Waystones Edge
        lat: 53.6276
        lng: -1.9715
        nickname: waystones
        contact: ''
        wind_directions: []
      - name: Westbury
        lat: 51.2657
        lng: -2.14479
        nickname: westbury
        contact: http://avonhgpg.co.uk/
        wind_directions: []
      - name: Wether Fell
        lat: 54.2756
        lng: -2.20427
        nickname: wf
        contact: ''
        wind_directions: []
      - name: Wetton Hill
        lat: 53.1029
        lng: -1.8392
        nickname: wettonhill
        contact: http://www.tvhgc.co.uk/
        wind_directions: []
      - name: Whernside
        lat: 54.2223
        lng: -2.40158
        nickname: whernside
        contact: ''
        wind_directions: []
      - name: Whernside (NW)
        lat: 54.2379
        lng: -2.40506
        nickname: whernsiden
        contact: ''
        wind_directions: []
      - name: Whernside (SW)
        lat: 54.2246
        lng: -2.40944
        nickname: whernsidew
        contact: ''
        wind_directions: []
      - name: Whitbarrow Scar
        lat: 54.2562
        lng: -2.84277
        nickname: whitbarrow
        contact: ''
        wind_directions: []
      - name: White Corries
        lat: 56.6275
        lng: -4.84257
        nickname: whitecorries
        contact: https://www.walkhighlands.co.uk/fortwilliam/buachailleetivemor.shtml
        wind_directions: []
      - name: White Field
        lat: 51.4884
        lng: -1.70472
        nickname: whitefield
        contact: http://www.tvhgc.co.uk/
        wind_directions: []
      - name: White Hill
        lat: 51.307062
        lng: -1.258842
        nickname: whitehill
        contact: http://www.tvhgc.co.uk/
        wind_directions: []
      - name: White Horse
        lat: 50.6593
        lng: -2.4044
        nickname: whitehorse
        contact: http://www.shgc.org.uk/
        wind_directions: []
      - name: Whitesheet
        lat: 51.0131
        lng: -2.09194
        nickname: whitesheet
        contact: http://www.wessexhgpg.org.uk
        wind_directions: []
      - name: Whiteside - White Knowe
        lat: 55.7048
        lng: -3.32094
        nickname: whiteside
        contact: ''
        wind_directions: []
      - name: Whitestones
        lat: 54.3797
        lng: -2.56518
        nickname: whitestones
        contact: ''
        wind_directions: []
      - name: Whitewool
        lat: 50.979072
        lng: -1.075773
        nickname: whitewool
        contact: http://skysurfingclub.co.uk/
        wind_directions: []
      - name: Whitsand
        lat: 50.3446
        lng: -4.25038
        nickname: whitsand
        contact: ''
        wind_directions: []
      - name: Widgery Cross
        lat: 50.6538
        lng: -4.06987
        nickname: widgery
        contact: ''
        wind_directions: []
      - name: Wild Boar Fell
        lat: 54.3811
        lng: -2.36893
        nickname: wbf
        contact: ''
        wind_directions: []
      - name: Windbank
        lat: 54.1293
        lng: -2.05357
        nickname: windbank
        contact: ''
        wind_directions: []
      - name: Winter Hill
        lat: 53.6302
        lng: -2.5157
        nickname: winterhill
        contact: ''
        wind_directions: []
      - name: Withycombe
        lat: 51.1627
        lng: -3.42171
        nickname: withycombe
        contact: ''
        wind_directions: []
      - name: Wolf Craggs
        lat: 54.5919
        lng: -2.98887
        nickname: wolfc
        contact: ''
        wind_directions: []
      - name: Woolacombe
        lat: 51.1593
        lng: -4.2056
        nickname: woolacombe
        contact: ''
        wind_directions: []
      - name: Worcester Beacon
        lat: 52.1043
        lng: -2.3395
        nickname: worcbeacon
        contact: http://www.malvern-hang.org.uk/
        wind_directions: []
      - name: Wrynose Pass
        lat: 54.4183
        lng: -3.1139
        nickname: wnp
        contact: ''
        wind_directions: []
